=~=~=~=~=~=~=~=~=~=~=~= PuTTY log 2023.10.03 19:02:07 =~=~=~=~=~=~=~=~=~=~=~=
$GNRMC,220207.80,A,3438.36250,S,05834.94650,W,0.021,,031023,,,D*63
$GNVTG,,T,,M,0.021,N,0.040,K,D*3F
$GNGGA,220207.80,3438.36250,S,05834.94650,W,2,12,0.64,33.0,M,13.9,M,,0000*73
$GNVTG,,T,,M,0.006,N,0.012,K,D*3D
$GNGGA,220208.00,3438.36250,S,05834.94650,W,2,12,0.64,33.0,M,13.9,M,,0000*74
$GNVTG,,T,,M,0.011,N,0.021,K,D*3B
$GNGGA,220208.20,3438.36250,S,05834.94651,W,2,12,0.64,33.0,M,13.9,M,,0000*77
$GNVTG,,T,,M,0.022,N,0.040,K,D*3C
$GNGGA,220208.40,3438.36250,S,05834.94651,W,2,12,0.64,33.0,M,13.9,M,,0000*71
$GNVTG,,T,,M,0.011,N,0.021,K,D*3B
$GNGGA,220208.60,3438.36250,S,05834.94651,W,2,12,0.64,33.0,M,13.9,M,,0000*73
$GNRMC,220208.80,A,3438.36250,S,05834.94651,W,0.025,,031023,,,D*69
$GNVTG,,T,,M,0.025,N,0.046,K,D*3D
$GNGGA,220208.80,3438.36250,S,05834.94651,W,2,12,0.64,33.0,M,13.9,M,,0000*7D
$GNVTG,,T,,M,0.031,N,0.057,K,D*38
$GNGGA,220209.00,3438.36249,S,05834.94651,W,2,12,0.64,33.0,M,13.9,M,,0000*7C
$GNVTG,,T,,M,0.014,N,0.026,K,D*39
$GNGGA,220209.20,3438.36249,S,05834.94651,W,2,12,0.64,33.0,M,13.9,M,,0000*7E
$GNVTG,,T,,M,0.023,N,0.042,K,D*3F
$GNGGA,220209.40,3438.36249,S,05834.94651,W,2,12,0.64,33.0,M,13.9,M,,0000*78
$GNVTG,,T,,M,0.010,N,0.018,K,D*30
$GNGGA,220209.60,3438.36249,S,05834.94651,W,2,12,0.64,33.0,M,13.9,M,,0000*7A
$GNRMC,220209.80,A,3438.36249,S,05834.94652,W,0.043,,031023,,,D*63
$GNVTG,,T,,M,0.043,N,0.079,K,D*31
$GNGGA,220209.80,3438.36249,S,05834.94652,W,2,12,0.64,33.0,M,13.9,M,,0000*77
$GNVTG,,T,,M,0.008,N,0.015,K,D*34
$GNGGA,220210.00,3438.36249,S,05834.94652,W,2,12,0.64,33.0,M,13.9,M,,0000*77
$GNVTG,,T,,M,0.002,N,0.004,K,D*3E
$GNGGA,220210.20,3438.36249,S,05834.94652,W,2,12,0.64,33.0,M,13.9,M,,0000*75
$GNVTG,,T,,M,0.024,N,0.044,K,D*3E
$GNGGA,220210.40,3438.36249,S,05834.94652,W,2,12,0.64,32.9,M,13.9,M,,0000*7B
$GNVTG,,T,,M,0.015,N,0.029,K,D*37
$GNGGA,220210.60,3438.36249,S,05834.94652,W,2,12,0.64,33.0,M,13.9,M,,0000*71
$GNRMC,220210.80,A,3438.36249,S,05834.94652,W,0.013,,031023,,,D*6E
$GNVTG,,T,,M,0.013,N,0.025,K,D*3D
$GNGGA,220210.80,3438.36249,S,05834.94652,W,2,12,0.64,33.0,M,13.9,M,,0000*7F
$GNVTG,,T,,M,0.030,N,0.056,K,D*38
$GNGGA,220211.00,3438.36249,S,05834.94652,W,2,12,0.64,33.0,M,13.9,M,,0000*76
$GNVTG,,T,,M,0.028,N,0.053,K,D*34
$GNGGA,220211.20,3438.36249,S,05834.94652,W,2,12,0.64,33.0,M,13.9,M,,0000*74
$GNVTG,,T,,M,0.022,N,0.040,K,D*3C
$GNGGA,220211.40,3438.36249,S,05834.94652,W,2,12,0.64,33.0,M,13.9,M,,0000*72
$GNVTG,,T,,M,0.017,N,0.032,K,D*3F
$GNGGA,220211.60,3438.36249,S,05834.94652,W,2,12,0.64,33.0,M,13.9,M,,0000*70
$GNRMC,220211.80,A,3438.36249,S,05834.94652,W,0.011,,031023,,,D*6D
$GNVTG,,T,,M,0.011,N,0.020,K,D*3A
$GNGGA,220211.80,3438.36249,S,05834.94652,W,2,12,0.64,33.0,M,13.9,M,,0000*7E
$GNVTG,,T,,M,0.011,N,0.021,K,D*3B
$GNGGA,220212.00,3438.36249,S,05834.94652,W,2,12,0.64,32.9,M,13.9,M,,0000*7D
$GNVTG,,T,,M,0.007,N,0.012,K,D*3C
$GNGGA,220212.20,3438.36249,S,05834.94652,W,2,12,0.64,33.0,M,13.9,M,,0000*77
$GNVTG,,T,,M,0.025,N,0.046,K,D*3D
$GNGGA,220212.40,3438.36249,S,05834.94652,W,2,12,0.64,32.9,M,13.9,M,,0000*79
$GNVTG,,T,,M,0.009,N,0.016,K,D*36
$GNGGA,220212.60,3438.36249,S,05834.94652,W,2,12,0.64,32.9,M,13.9,M,,0000*7B
$GNRMC,220212.80,A,3438.36249,S,05834.94652,W,0.012,,031023,,,D*6D
$GNVTG,,T,,M,0.012,N,0.023,K,D*3A
$GNGGA,220212.80,3438.36249,S,05834.94652,W,2,12,0.64,32.9,M,13.9,M,,0000*75
$GNVTG,,T,,M,0.021,N,0.038,K,D*30
$GNGGA,220213.00,3438.36249,S,05834.94652,W,2,12,0.64,32.9,M,13.9,M,,0000*7C
$GNVTG,,T,,M,0.023,N,0.043,K,D*3E
$GNGGA,220213.20,3438.36249,S,05834.94652,W,2,12,0.64,32.9,M,13.9,M,,0000*7E
$GNVTG,,T,,M,0.037,N,0.069,K,D*33
$GNGGA,220213.40,3438.36249,S,05834.94652,W,2,12,0.64,32.9,M,13.9,M,,0000*78
$GNVTG,,T,,M,0.016,N,0.029,K,D*34
$GNGGA,220213.60,3438.36249,S,05834.94652,W,2,12,0.64,32.9,M,13.9,M,,0000*7A
$GNRMC,220213.80,A,3438.36249,S,05834.94652,W,0.015,,031023,,,D*6B
$GNVTG,,T,,M,0.015,N,0.028,K,D*36
$GNGGA,220213.80,3438.36249,S,05834.94652,W,2,12,0.64,32.9,M,13.9,M,,0000*74
$GNVTG,,T,,M,0.011,N,0.020,K,D*3A
$GNGGA,220214.00,3438.36249,S,05834.94652,W,2,12,0.64,32.9,M,13.9,M,,0000*7B
$GNVTG,,T,,M,0.027,N,0.050,K,D*38
$GNGGA,220214.20,3438.36249,S,05834.94652,W,2,12,0.64,32.9,M,13.9,M,,0000*79
$GNVTG,,T,,M,0.016,N,0.030,K,D*3C
$GNGGA,220214.40,3438.36249,S,05834.94652,W,2,12,0.64,32.9,M,13.9,M,,0000*7F
$GNVTG,,T,,M,0.003,N,0.006,K,D*3D
$GNGGA,220214.60,3438.36249,S,05834.94652,W,2,12,0.64,32.9,M,13.9,M,,0000*7D
$GNRMC,220214.80,A,3438.36249,S,05834.94652,W,0.021,,031023,,,D*6B
$GNVTG,,T,,M,0.021,N,0.040,K,D*3F
$GNGGA,220214.80,3438.36249,S,05834.94652,W,2,12,0.64,32.9,M,13.9,M,,0000*73
$GNVTG,,T,,M,0.005,N,0.010,K,D*3C
$GNGGA,220215.00,3438.36249,S,05834.94652,W,2,12,0.64,32.9,M,13.9,M,,0000*7A
$GNVTG,,T,,M,0.019,N,0.035,K,D*36
$GNGGA,220215.20,3438.36249,S,05834.94652,W,2,12,0.64,32.9,M,13.9,M,,0000*78
$GNVTG,,T,,M,0.009,N,0.017,K,D*37
$GNGGA,220215.40,3438.36249,S,05834.94653,W,2,12,0.64,32.9,M,13.9,M,,0000*7F
$GNVTG,,T,,M,0.032,N,0.059,K,D*35
$GNGGA,220215.60,3438.36249,S,05834.94653,W,2,12,0.64,32.9,M,13.9,M,,0000*7D
$GNRMC,220215.80,A,3438.36249,S,05834.94653,W,0.027,,031023,,,D*6D
$GNVTG,,T,,M,0.027,N,0.049,K,D*30
$GNGGA,220215.80,3438.36249,S,05834.94653,W,2,12,0.64,32.9,M,13.9,M,,0000*73
$GNVTG,,T,,M,0.028,N,0.052,K,D*35
$GNGGA,220216.00,3438.36249,S,05834.94653,W,2,12,0.64,32.9,M,13.9,M,,0000*78
$GNVTG,,T,,M,0.014,N,0.026,K,D*39
$GNGGA,220216.20,3438.36249,S,05834.94653,W,2,12,0.64,32.9,M,13.9,M,,0000*7A
$GNVTG,,T,,M,0.006,N,0.012,K,D*3D
$GNGGA,220216.40,3438.36249,S,05834.94653,W,2,12,0.64,32.9,M,13.9,M,,0000*7C
$GNVTG,,T,,M,0.014,N,0.026,K,D*39
$GNGGA,220216.60,3438.36249,S,05834.94653,W,2,12,0.64,32.9,M,13.9,M,,0000*7E
$GNRMC,220216.80,A,3438.36249,S,05834.94653,W,0.022,,031023,,,D*6B
$GNVTG,,T,,M,0.022,N,0.040,K,D*3C
$GNGGA,220216.80,3438.36249,S,05834.94653,W,2,12,0.64,32.9,M,13.9,M,,0000*70
$GNVTG,,T,,M,0.005,N,0.010,K,D*3C
$GNGGA,220217.00,3438.36249,S,05834.94653,W,2,12,0.64,32.9,M,13.9,M,,0000*79
$GNVTG,,T,,M,0.014,N,0.026,K,D*39
$GNGGA,220217.20,3438.36249,S,05834.94653,W,2,12,0.64,32.9,M,13.9,M,,0000*7B
$GNVTG,,T,,M,0.002,N,0.004,K,D*3E
$GNGGA,220217.40,3438.36249,S,05834.94653,W,2,12,0.64,32.9,M,13.9,M,,0000*7D
$GNVTG,,T,,M,0.014,N,0.026,K,D*39
$GNGGA,220217.60,3438.36249,S,05834.94653,W,2,12,0.64,32.9,M,13.9,M,,0000*7F
$GNRMC,220217.80,A,3438.36250,S,05834.94653,W,0.014,,031023,,,D*67
$GNVTG,,T,,M,0.014,N,0.026,K,D*39
$GNGGA,220217.80,3438.36250,S,05834.94653,W,2,12,0.64,32.9,M,13.9,M,,0000*79
$GNVTG,,T,,M,0.036,N,0.067,K,D*3C
$GNGGA,220218.00,3438.36250,S,05834.94654,W,2,12,0.64,32.9,M,13.9,M,,0000*79
$GNVTG,,T,,M,0.013,N,0.024,K,D*3C
$GNGGA,220218.20,3438.36250,S,05834.94654,W,2,12,0.64,32.9,M,13.9,M,,0000*7B
$GNVTG,,T,,M,0.051,N,0.094,K,D*31
$GNGGA,220218.40,3438.36250,S,05834.94654,W,2,12,0.64,32.9,M,13.9,M,,0000*7D
$GNVTG,,T,,M,0.016,N,0.030,K,D*3C
$GNGGA,220218.60,3438.36250,S,05834.94654,W,2,12,0.64,32.9,M,13.9,M,,0000*7F
$GNRMC,220218.80,A,3438.36251,S,05834.94655,W,0.045,,031023,,,D*6B
$GNVTG,,T,,M,0.045,N,0.084,K,D*35
$GNGGA,220218.80,3438.36251,S,05834.94655,W,2,12,0.64,32.9,M,13.9,M,,0000*71
$GNVTG,,T,,M,0.186,N,0.344,K,D*34
$GNGGA,220219.00,3438.36251,S,05834.94656,W,2,12,0.64,32.8,M,13.9,M,,0000*7A
$GNVTG,,T,,M,0.162,N,0.300,K,D*3E
$GNGGA,220219.20,3438.36252,S,05834.94657,W,2,12,0.64,32.8,M,13.9,M,,0000*7A
$GNVTG,,T,,M,0.103,N,0.190,K,D*32
$GNGGA,220219.40,3438.36253,S,05834.94657,W,2,12,0.64,32.8,M,13.9,M,,0000*7D
$GNVTG,,T,,M,0.067,N,0.125,K,D*3F
$GNGGA,220219.60,3438.36253,S,05834.94658,W,2,12,0.64,32.8,M,13.9,M,,0000*70
$GNRMC,220219.80,A,3438.36253,S,05834.94658,W,0.021,,031023,,,D*67
$GNVTG,,T,,M,0.021,N,0.038,K,D*30
$GNGGA,220219.80,3438.36253,S,05834.94658,W,2,12,0.64,32.8,M,13.9,M,,0000*7E
$GNVTG,,T,,M,0.022,N,0.041,K,D*3D
$GNGGA,220220.00,3438.36253,S,05834.94658,W,2,12,0.64,32.8,M,13.9,M,,0000*7C
$GNVTG,,T,,M,0.003,N,0.006,K,D*3D
$GNGGA,220220.20,3438.36253,S,05834.94658,W,2,12,0.64,32.8,M,13.9,M,,0000*7E
$GNVTG,,T,,M,0.191,N,0.354,K,D*33
$GNGGA,220220.40,3438.36254,S,05834.94658,W,2,12,0.64,32.8,M,13.9,M,,0000*7F
$GNVTG,226.11,T,,M,0.525,N,0.973,K,D*2F
$GNGGA,220220.60,3438.36256,S,05834.94661,W,2,12,0.64,32.8,M,13.9,M,,0000*75
$GNRMC,220220.80,A,3438.36259,S,05834.94665,W,0.827,226.59,031023,,,D*73
$GNVTG,226.59,T,,M,0.827,N,1.532,K,D*24
$GNGGA,220220.80,3438.36259,S,05834.94665,W,2,12,0.64,32.8,M,13.9,M,,0000*70
$GNVTG,225.50,T,,M,1.072,N,1.985,K,D*27
$GNGGA,220221.00,3438.36264,S,05834.94671,W,2,12,0.64,32.8,M,13.9,M,,0000*72
$GNVTG,224.85,T,,M,1.257,N,2.328,K,D*25
$GNGGA,220221.20,3438.36269,S,05834.94677,W,2,12,0.64,32.8,M,13.9,M,,0000*7B
$GNVTG,224.90,T,,M,1.534,N,2.841,K,D*27
$GNGGA,220221.40,3438.36275,S,05834.94684,W,2,12,0.64,32.8,M,13.9,M,,0000*7C
$GNVTG,224.27,T,,M,1.735,N,3.213,K,D*24
$GNGGA,220221.60,3438.36283,S,05834.94693,W,2,12,0.64,32.8,M,13.9,M,,0000*71
$GNRMC,220221.80,A,3438.36290,S,05834.94702,W,1.940,224.34,031023,,,D*7F
$GNVTG,224.34,T,,M,1.940,N,3.592,K,D*24
$GNGGA,220221.80,3438.36290,S,05834.94702,W,2,12,0.64,32.8,M,13.9,M,,0000*74
$GNVTG,224.54,T,,M,2.048,N,3.793,K,D*23
$GNGGA,220222.00,3438.36299,S,05834.94712,W,2,12,0.64,32.8,M,13.9,M,,0000*77
$GNVTG,224.76,T,,M,2.285,N,4.231,K,D*2A
$GNGGA,220222.20,3438.36308,S,05834.94723,W,2,12,0.64,32.8,M,13.9,M,,0000*7E
$GNVTG,223.92,T,,M,2.465,N,4.565,K,D*29
$GNGGA,220222.40,3438.36318,S,05834.94734,W,2,12,0.64,32.8,M,13.9,M,,0000*7F
$GNVTG,224.32,T,,M,2.520,N,4.667,K,D*25
$GNGGA,220222.60,3438.36328,S,05834.94746,W,2,12,0.64,32.8,M,13.9,M,,0000*7B
$GNRMC,220222.80,A,3438.36339,S,05834.94759,W,2.689,223.81,031023,,,D*70
$GNVTG,223.81,T,,M,2.689,N,4.979,K,D*2A
$GNGGA,220222.80,3438.36339,S,05834.94759,W,2,12,0.64,32.7,M,13.9,M,,0000*74
$GNVTG,224.46,T,,M,2.683,N,4.969,K,D*2D
$GNGGA,220223.00,3438.36350,S,05834.94772,W,2,12,0.64,32.8,M,13.9,M,,0000*74
$GNVTG,224.70,T,,M,2.803,N,5.192,K,D*23
$GNGGA,220223.20,3438.36361,S,05834.94785,W,2,12,0.64,32.7,M,13.9,M,,0000*73
$GNVTG,222.93,T,,M,2.822,N,5.226,K,D*27
$GNGGA,220223.40,3438.36373,S,05834.94798,W,2,12,0.64,32.7,M,13.9,M,,0000*7A
$GNVTG,222.28,T,,M,2.909,N,5.388,K,D*2A
$GNGGA,220223.60,3438.36385,S,05834.94811,W,2,12,0.64,32.7,M,13.9,M,,0000*7F
$GNRMC,220223.80,A,3438.36397,S,05834.94825,W,2.981,222.96,031023,,,D*71
$GNVTG,222.96,T,,M,2.981,N,5.522,K,D*29
$GNGGA,220223.80,3438.36397,S,05834.94825,W,2,12,0.64,32.7,M,13.9,M,,0000*75
$GNVTG,222.86,T,,M,2.972,N,5.504,K,D*20
$GNGGA,220224.00,3438.36409,S,05834.94839,W,2,12,0.64,32.8,M,13.9,M,,0000*78
$GNVTG,222.87,T,,M,3.168,N,5.867,K,D*2B
$GNGGA,220224.20,3438.36423,S,05834.94853,W,2,12,0.64,32.7,M,13.9,M,,0000*71
$GNVTG,222.77,T,,M,3.094,N,5.730,K,D*2B
$GNGGA,220224.40,3438.36435,S,05834.94867,W,2,12,0.64,32.8,M,13.9,M,,0000*78
$GNVTG,222.72,T,,M,3.181,N,5.892,K,D*2C
$GNGGA,220224.60,3438.36448,S,05834.94882,W,2,12,0.64,32.7,M,13.9,M,,0000*74
$GNRMC,220224.80,A,3438.36461,S,05834.94897,W,3.185,223.27,031023,,,D*77
$GNVTG,223.27,T,,M,3.185,N,5.899,K,D*22
$GNGGA,220224.80,3438.36461,S,05834.94897,W,2,12,0.64,32.7,M,13.9,M,,0000*75
$GNVTG,222.59,T,,M,3.214,N,5.953,K,D*26
$GNGGA,220225.00,3438.36475,S,05834.94911,W,2,12,0.64,32.7,M,13.9,M,,0000*76
$GNVTG,222.26,T,,M,3.265,N,6.048,K,D*28
$GNGGA,220225.20,3438.36488,S,05834.94926,W,2,12,0.64,32.7,M,13.9,M,,0000*72
$GNVTG,222.21,T,,M,3.226,N,5.974,K,D*2D
$GNGGA,220225.40,3438.36502,S,05834.94941,W,2,12,0.64,32.7,M,13.9,M,,0000*76
$GNVTG,221.88,T,,M,3.302,N,6.116,K,D*25
$GNGGA,220225.60,3438.36515,S,05834.94955,W,2,12,0.64,32.7,M,13.9,M,,0000*77
$GNRMC,220225.80,A,3438.36529,S,05834.94970,W,3.262,222.16,031023,,,D*7A
$GNVTG,222.16,T,,M,3.262,N,6.041,K,D*25
$GNGGA,220225.80,3438.36529,S,05834.94970,W,2,12,0.64,32.7,M,13.9,M,,0000*71
$GNVTG,221.64,T,,M,3.327,N,6.162,K,D*23
$GNGGA,220226.00,3438.36543,S,05834.94985,W,2,12,0.64,32.7,M,13.9,M,,0000*7C
$GNVTG,221.64,T,,M,3.269,N,6.054,K,D*2C
$GNGGA,220226.20,3438.36557,S,05834.94999,W,2,12,0.64,32.7,M,13.9,M,,0000*76
$GNVTG,222.00,T,,M,3.360,N,6.222,K,D*26
$GNGGA,220226.40,3438.36571,S,05834.95015,W,2,12,0.64,32.7,M,13.9,M,,0000*78
$GNVTG,221.63,T,,M,3.360,N,6.224,K,D*26
$GNGGA,220226.60,3438.36585,S,05834.95030,W,2,12,0.64,32.7,M,13.9,M,,0000*76
$GNRMC,220226.80,A,3438.36599,S,05834.95044,W,3.340,221.36,031023,,,D*7D
$GNVTG,221.36,T,,M,3.340,N,6.186,K,D*2F
$GNGGA,220226.80,3438.36599,S,05834.95044,W,2,12,0.64,32.7,M,13.9,M,,0000*76
$GNVTG,221.34,T,,M,3.368,N,6.237,K,D*2E
$GNGGA,220227.00,3438.36613,S,05834.95059,W,2,12,0.64,32.7,M,13.9,M,,0000*72
$GNVTG,221.14,T,,M,3.400,N,6.297,K,D*2F
$GNGGA,220227.20,3438.36627,S,05834.95074,W,2,12,0.64,32.7,M,13.9,M,,0000*78
$GNVTG,221.65,T,,M,3.366,N,6.233,K,D*20
$GNGGA,220227.40,3438.36641,S,05834.95090,W,2,12,0.64,32.7,M,13.9,M,,0000*74
$GNVTG,221.53,T,,M,3.285,N,6.083,K,D*20
$GNGGA,220227.60,3438.36655,S,05834.95104,W,2,12,0.64,32.7,M,13.9,M,,0000*7F
$GNRMC,220227.80,A,3438.36669,S,05834.95119,W,3.311,220.80,031023,,,D*71
$GNVTG,220.80,T,,M,3.311,N,6.132,K,D*28
$GNGGA,220227.80,3438.36669,S,05834.95119,W,2,12,0.64,32.7,M,13.9,M,,0000*72
$GNVTG,221.36,T,,M,3.285,N,6.085,K,D*25
$GNGGA,220228.00,3438.36683,S,05834.95134,W,2,12,0.64,32.7,M,13.9,M,,0000*7E
$GNVTG,221.67,T,,M,3.248,N,6.015,K,D*29
$GNGGA,220228.20,3438.36697,S,05834.95148,W,2,12,0.64,32.7,M,13.9,M,,0000*72
$GNVTG,220.62,T,,M,3.276,N,6.067,K,D*25
$GNGGA,220228.40,3438.36711,S,05834.95163,W,2,12,0.64,32.7,M,13.9,M,,0000*72
$GNVTG,221.50,T,,M,3.319,N,6.147,K,D*2E
$GNGGA,220228.60,3438.36724,S,05834.95178,W,2,12,0.64,32.6,M,13.9,M,,0000*7D
$GNRMC,220228.80,A,3438.36738,S,05834.95192,W,3.243,221.22,031023,,,D*77
$GNVTG,221.22,T,,M,3.243,N,6.005,K,D*22
$GNGGA,220228.80,3438.36738,S,05834.95192,W,2,12,0.64,32.6,M,13.9,M,,0000*7A
$GNVTG,221.24,T,,M,3.285,N,6.084,K,D*27
$GNGGA,220229.00,3438.36752,S,05834.95207,W,2,12,0.64,32.6,M,13.9,M,,0000*70
$GNVTG,221.55,T,,M,3.273,N,6.061,K,D*23
$GNGGA,220229.20,3438.36765,S,05834.95221,W,2,12,0.64,32.6,M,13.9,M,,0000*72
$GNVTG,221.30,T,,M,3.205,N,5.936,K,D*29
$GNGGA,220229.40,3438.36779,S,05834.95236,W,2,12,0.64,32.6,M,13.9,M,,0000*7F
$GNVTG,221.45,T,,M,3.222,N,5.967,K,D*2A
$GNGGA,220229.60,3438.36792,S,05834.95250,W,2,12,0.64,32.6,M,13.9,M,,0000*78
$GNRMC,220229.80,A,3438.36806,S,05834.95264,W,3.188,221.47,031023,,,D*79
$GNVTG,221.47,T,,M,3.188,N,5.905,K,D*2F
$GNGGA,220229.80,3438.36806,S,05834.95264,W,2,12,0.64,32.6,M,13.9,M,,0000*73
$GNVTG,221.87,T,,M,3.294,N,6.101,K,D*22
$GNGGA,220230.00,3438.36819,S,05834.95279,W,2,12,0.64,32.6,M,13.9,M,,0000*71
$GNVTG,221.93,T,,M,3.280,N,6.074,K,D*21
$GNGGA,220230.20,3438.36833,S,05834.95294,W,2,12,0.64,32.6,M,13.9,M,,0000*78
$GNVTG,221.91,T,,M,3.160,N,5.853,K,D*20
$GNGGA,220230.40,3438.36846,S,05834.95308,W,2,12,0.64,32.6,M,13.9,M,,0000*78
$GNVTG,222.04,T,,M,3.194,N,5.915,K,D*27
$GNGGA,220230.60,3438.36859,S,05834.95323,W,2,12,0.64,32.6,M,13.9,M,,0000*7D
$GNRMC,220230.80,A,3438.36873,S,05834.95337,W,3.208,221.26,031023,,,D*78
$GNVTG,221.26,T,,M,3.208,N,5.941,K,D*23
$GNGGA,220230.80,3438.36873,S,05834.95337,W,2,12,0.64,32.6,M,13.9,M,,0000*7E
$GNVTG,221.76,T,,M,3.145,N,5.824,K,D*2E
$GNGGA,220231.00,3438.36886,S,05834.95351,W,2,12,0.64,32.6,M,13.9,M,,0000*7D
$GNVTG,221.90,T,,M,3.123,N,5.784,K,D*23
$GNGGA,220231.20,3438.36899,S,05834.95366,W,2,12,0.64,32.6,M,13.9,M,,0000*75
$GNVTG,221.57,T,,M,3.103,N,5.747,K,D*25
$GNGGA,220231.40,3438.36912,S,05834.95379,W,2,12,0.64,32.6,M,13.9,M,,0000*7F
$GNVTG,222.39,T,,M,3.122,N,5.783,K,D*25
$GNGGA,220231.60,3438.36925,S,05834.95394,W,2,12,0.64,32.6,M,13.9,M,,0000*7A
$GNRMC,220231.80,A,3438.36938,S,05834.95408,W,3.104,222.71,031023,,,D*72
$GNVTG,222.71,T,,M,3.104,N,5.748,K,D*2A
$GNGGA,220231.80,3438.36938,S,05834.95408,W,2,12,0.64,32.6,M,13.9,M,,0000*7A
$GNVTG,221.56,T,,M,3.104,N,5.748,K,D*2C
$GNGGA,220232.00,3438.36951,S,05834.95422,W,2,12,0.64,32.6,M,13.9,M,,0000*76
$GNVTG,222.23,T,,M,3.152,N,5.837,K,D*29
$GNGGA,220232.20,3438.36964,S,05834.95436,W,2,12,0.64,32.7,M,13.9,M,,0000*76
$GNVTG,221.88,T,,M,3.048,N,5.645,K,D*2A
$GNGGA,220232.40,3438.36977,S,05834.95450,W,2,12,0.64,32.7,M,13.9,M,,0000*72
$GNVTG,222.96,T,,M,3.127,N,5.791,K,D*26
$GNGGA,220232.60,3438.36989,S,05834.95465,W,2,12,0.64,32.7,M,13.9,M,,0000*77
$GNRMC,220232.80,A,3438.37002,S,05834.95478,W,3.035,222.38,031023,,,D*79
$GNVTG,222.38,T,,M,3.035,N,5.621,K,D*2A
$GNGGA,220232.80,3438.37002,S,05834.95478,W,2,12,0.64,32.7,M,13.9,M,,0000*7E
$GNVTG,222.07,T,,M,3.097,N,5.736,K,D*29
$GNGGA,220233.00,3438.37015,S,05834.95492,W,2,12,0.64,32.7,M,13.9,M,,0000*75
$GNVTG,222.35,T,,M,3.060,N,5.667,K,D*25
$GNGGA,220233.20,3438.37028,S,05834.95506,W,2,12,0.64,32.7,M,13.9,M,,0000*75
$GNVTG,222.82,T,,M,3.021,N,5.594,K,D*23
$GNGGA,220233.40,3438.37040,S,05834.95520,W,2,12,0.64,32.7,M,13.9,M,,0000*79
$GNVTG,221.78,T,,M,3.065,N,5.677,K,D*2B
$GNGGA,220233.60,3438.37053,S,05834.95534,W,2,12,0.64,32.7,M,13.9,M,,0000*7C
$GNRMC,220233.80,A,3438.37066,S,05834.95548,W,3.060,222.04,031023,,,D*77
$GNVTG,222.04,T,,M,3.060,N,5.667,K,D*27
$GNGGA,220233.80,3438.37066,S,05834.95548,W,2,12,0.64,32.7,M,13.9,M,,0000*7F
$GNVTG,223.07,T,,M,3.058,N,5.663,K,D*2A
$GNGGA,220234.00,3438.37078,S,05834.95562,W,2,12,0.64,32.7,M,13.9,M,,0000*77
$GNVTG,222.70,T,,M,3.017,N,5.587,K,D*29
$GNGGA,220234.20,3438.37091,S,05834.95576,W,2,12,0.64,32.7,M,13.9,M,,0000*77
$GNVTG,222.90,T,,M,3.070,N,5.686,K,D*24
$GNGGA,220234.40,3438.37103,S,05834.95590,W,2,12,0.64,32.7,M,13.9,M,,0000*73
$GNVTG,222.65,T,,M,3.053,N,5.654,K,D*20
$GNGGA,220234.60,3438.37116,S,05834.95604,W,2,12,0.64,32.7,M,13.9,M,,0000*7B
$GNRMC,220234.80,A,3438.37129,S,05834.95618,W,3.065,222.38,031023,,,D*76
$GNVTG,222.38,T,,M,3.065,N,5.676,K,D*2D
$GNGGA,220234.80,3438.37129,S,05834.95618,W,2,12,0.64,32.7,M,13.9,M,,0000*74
$GNVTG,223.07,T,,M,3.044,N,5.637,K,D*26
$GNGGA,220235.00,3438.37141,S,05834.95632,W,2,12,0.64,32.7,M,13.9,M,,0000*7B
$GNVTG,222.04,T,,M,3.062,N,5.672,K,D*21
$GNGGA,220235.20,3438.37154,S,05834.95646,W,2,12,0.64,32.7,M,13.9,M,,0000*7E
$GNVTG,222.53,T,,M,3.135,N,5.806,K,D*2D
$GNGGA,220235.40,3438.37167,S,05834.95660,W,2,12,0.64,32.7,M,13.9,M,,0000*7C
$GNVTG,222.23,T,,M,3.057,N,5.661,K,D*20
$GNGGA,220235.60,3438.37180,S,05834.95674,W,2,12,0.64,32.7,M,13.9,M,,0000*72
$GNRMC,220235.80,A,3438.37192,S,05834.95688,W,3.054,222.99,031023,,,D*77
$GNVTG,222.99,T,,M,3.054,N,5.656,K,D*26
$GNGGA,220235.80,3438.37192,S,05834.95688,W,2,12,0.64,32.7,M,13.9,M,,0000*7C
$GNVTG,222.59,T,,M,3.127,N,5.790,K,D*24
$GNGGA,220236.00,3438.37205,S,05834.95702,W,2,12,0.64,32.7,M,13.9,M,,0000*79
$GNVTG,221.75,T,,M,3.067,N,5.680,K,D*2C
$GNGGA,220236.20,3438.37218,S,05834.95716,W,2,12,0.64,32.7,M,13.9,M,,0000*72
$GNVTG,222.60,T,,M,3.124,N,5.785,K,D*29
$GNGGA,220236.40,3438.37231,S,05834.95730,W,2,12,0.64,32.7,M,13.9,M,,0000*7B
$GNVTG,222.36,T,,M,3.091,N,5.725,K,D*2F
$GNGGA,220236.60,3438.37244,S,05834.95744,W,2,12,0.64,32.7,M,13.9,M,,0000*78
$GNRMC,220236.80,A,3438.37256,S,05834.95758,W,3.107,222.06,031023,,,D*72
$GNVTG,222.06,T,,M,3.107,N,5.755,K,D*25
$GNGGA,220236.80,3438.37256,S,05834.95758,W,2,12,0.64,32.7,M,13.9,M,,0000*78
$GNVTG,222.24,T,,M,3.112,N,5.764,K,D*23
$GNGGA,220237.00,3438.37269,S,05834.95773,W,2,12,0.64,32.7,M,13.9,M,,0000*74
$GNVTG,222.10,T,,M,3.144,N,5.822,K,D*2A
$GNGGA,220237.20,3438.37282,S,05834.95787,W,2,12,0.64,32.7,M,13.9,M,,0000*78
$GNVTG,221.81,T,,M,3.107,N,5.755,K,D*29
$GNGGA,220237.40,3438.37296,S,05834.95800,W,2,12,0.64,32.7,M,13.9,M,,0000*7B
$GNVTG,222.95,T,,M,3.156,N,5.845,K,D*25
$GNGGA,220237.60,3438.37308,S,05834.95815,W,2,12,0.64,32.7,M,13.9,M,,0000*7B
$GNRMC,220237.80,A,3438.37322,S,05834.95829,W,3.099,221.79,031023,,,D*75
$GNVTG,221.79,T,,M,3.099,N,5.739,K,D*22
$GNGGA,220237.80,3438.37322,S,05834.95829,W,2,12,0.64,32.7,M,13.9,M,,0000*72
$GNVTG,221.49,T,,M,3.111,N,5.762,K,D*2E
$GNGGA,220238.00,3438.37335,S,05834.95843,W,2,12,0.64,32.8,M,13.9,M,,0000*70
$GNVTG,221.83,T,,M,3.056,N,5.660,K,D*29
$GNGGA,220238.20,3438.37347,S,05834.95856,W,2,12,0.64,32.8,M,13.9,M,,0000*73
$GNVTG,222.24,T,,M,3.059,N,5.666,K,D*2E
$GNGGA,220238.40,3438.37360,S,05834.95870,W,2,12,0.64,32.8,M,13.9,M,,0000*74
$GNVTG,222.32,T,,M,3.046,N,5.640,K,D*23
$GNGGA,220238.60,3438.37373,S,05834.95884,W,2,12,0.64,32.8,M,13.9,M,,0000*7F
$GNRMC,220238.80,A,3438.37385,S,05834.95898,W,3.024,222.18,031023,,,D*7F
$GNVTG,222.18,T,,M,3.024,N,5.600,K,D*2B
$GNGGA,220238.80,3438.37385,S,05834.95898,W,2,12,0.64,32.8,M,13.9,M,,0000*75
$GNVTG,222.77,T,,M,3.075,N,5.696,K,D*29
$GNGGA,220239.00,3438.37398,S,05834.95912,W,2,12,0.64,32.8,M,13.9,M,,0000*73
$GNVTG,222.23,T,,M,3.147,N,5.828,K,D*23
$GNGGA,220239.20,3438.37411,S,05834.95926,W,2,12,0.64,32.8,M,13.9,M,,0000*70
$GNVTG,221.10,T,,M,3.148,N,5.830,K,D*26
$GNGGA,220239.40,3438.37425,S,05834.95940,W,2,12,0.64,32.8,M,13.9,M,,0000*71
$GNVTG,221.26,T,,M,3.058,N,5.663,K,D*2B
$GNGGA,220239.60,3438.37438,S,05834.95954,W,2,12,0.64,32.8,M,13.9,M,,0000*7A
$GNRMC,220239.80,A,3438.37451,S,05834.95968,W,3.101,221.46,031023,,,D*70
$GNVTG,221.46,T,,M,3.101,N,5.744,K,D*24
$GNGGA,220239.80,3438.37451,S,05834.95968,W,2,12,0.64,32.8,M,13.9,M,,0000*74
$GNVTG,221.90,T,,M,3.002,N,5.560,K,D*29
$GNGGA,220240.00,3438.37463,S,05834.95981,W,2,12,0.64,32.8,M,13.9,M,,0000*74
$GNVTG,222.04,T,,M,3.109,N,5.758,K,D*24
$GNGGA,220240.20,3438.37476,S,05834.95995,W,2,12,0.64,32.8,M,13.9,M,,0000*77
$GNVTG,222.60,T,,M,3.038,N,5.627,K,D*2C
$GNGGA,220240.40,3438.37488,S,05834.96009,W,2,12,0.64,32.8,M,13.9,M,,0000*7F
$GNVTG,222.06,T,,M,3.105,N,5.751,K,D*23
$GNGGA,220240.60,3438.37501,S,05834.96023,W,2,12,0.64,32.8,M,13.9,M,,0000*75
$GNRMC,220240.80,A,3438.37514,S,05834.96038,W,3.146,222.38,031023,,,D*78
$GNVTG,222.38,T,,M,3.146,N,5.825,K,D*25
$GNGGA,220240.80,3438.37514,S,05834.96038,W,2,12,0.64,32.8,M,13.9,M,,0000*75
$GNVTG,221.84,T,,M,3.168,N,5.868,K,D*24
$GNGGA,220241.00,3438.37528,S,05834.96052,W,2,12,0.64,32.8,M,13.9,M,,0000*7F
$GNVTG,221.94,T,,M,3.081,N,5.707,K,D*25
$GNGGA,220241.20,3438.37540,S,05834.96066,W,2,12,0.64,32.8,M,13.9,M,,0000*74
$GNVTG,221.41,T,,M,3.132,N,5.801,K,D*2D
$GNGGA,220241.40,3438.37554,S,05834.96080,W,2,12,0.64,32.8,M,13.9,M,,0000*7F
$GNVTG,221.39,T,,M,3.082,N,5.709,K,D*2F
$GNGGA,220241.60,3438.37567,S,05834.96093,W,2,12,0.64,32.8,M,13.9,M,,0000*7F
$GNRMC,220241.80,A,3438.37579,S,05834.96107,W,3.080,221.50,031023,,,D*79
$GNVTG,221.50,T,,M,3.080,N,5.704,K,D*2F
$GNGGA,220241.80,3438.37579,S,05834.96107,W,2,12,0.64,32.8,M,13.9,M,,0000*72
$GNVTG,221.75,T,,M,3.060,N,5.667,K,D*22
$GNGGA,220242.00,3438.37592,S,05834.96121,W,2,12,0.64,32.8,M,13.9,M,,0000*78
$GNVTG,221.51,T,,M,3.054,N,5.656,K,D*21
$GNGGA,220242.20,3438.37605,S,05834.96135,W,2,12,0.64,32.8,M,13.9,M,,0000*72
$GNVTG,222.02,T,,M,3.105,N,5.751,K,D*27
$GNGGA,220242.40,3438.37618,S,05834.96149,W,2,12,0.64,32.8,M,13.9,M,,0000*73
$GNVTG,222.35,T,,M,3.123,N,5.785,K,D*2E
$GNGGA,220242.60,3438.37630,S,05834.96163,W,2,12,0.64,32.8,M,13.9,M,,0000*73
$GNRMC,220242.80,A,3438.37644,S,05834.96177,W,3.170,221.20,031023,,,D*79
$GNVTG,221.20,T,,M,3.170,N,5.871,K,D*2B
$GNGGA,220242.80,3438.37644,S,05834.96177,W,2,12,0.64,32.8,M,13.9,M,,0000*7B
$GNVTG,222.15,T,,M,3.170,N,5.871,K,D*2E
$GNGGA,220243.00,3438.37657,S,05834.96192,W,2,12,0.64,32.8,M,13.9,M,,0000*7B
$GNVTG,221.70,T,,M,3.192,N,5.912,K,D*26
$GNGGA,220243.20,3438.37670,S,05834.96206,W,2,12,0.64,32.8,M,13.9,M,,0000*72
$GNVTG,221.36,T,,M,3.206,N,5.938,K,D*22
$GNGGA,220243.40,3438.37684,S,05834.96220,W,2,12,0.64,32.8,M,13.9,M,,0000*7B
$GNVTG,221.38,T,,M,3.196,N,5.920,K,D*2F
$GNGGA,220243.60,3438.37697,S,05834.96234,W,2,12,0.64,32.8,M,13.9,M,,0000*7E
$GNRMC,220243.80,A,3438.37710,S,05834.96249,W,3.227,221.53,031023,,,D*73
$GNVTG,221.53,T,,M,3.227,N,5.976,K,D*28
$GNGGA,220243.80,3438.37710,S,05834.96249,W,2,12,0.64,32.8,M,13.9,M,,0000*74
$GNVTG,222.09,T,,M,3.246,N,6.011,K,D*28
$GNGGA,220244.00,3438.37724,S,05834.96263,W,2,12,0.64,32.8,M,13.9,M,,0000*74
$GNVTG,221.88,T,,M,3.173,N,5.876,K,D*2D
$GNGGA,220244.20,3438.37737,S,05834.96277,W,2,12,0.64,32.8,M,13.9,M,,0000*71
$GNVTG,222.08,T,,M,3.239,N,5.999,K,D*2B
$GNGGA,220244.40,3438.37750,S,05834.96292,W,2,12,0.64,32.8,M,13.9,M,,0000*7D
$GNVTG,222.48,T,,M,3.290,N,6.093,K,D*2C
$GNGGA,220244.60,3438.37764,S,05834.96307,W,2,12,0.64,32.8,M,13.9,M,,0000*75
$GNRMC,220244.80,A,3438.37777,S,05834.96321,W,3.207,221.76,031023,,,D*7F
$GNVTG,221.76,T,,M,3.207,N,5.939,K,D*26
$GNGGA,220244.80,3438.37777,S,05834.96321,W,2,12,0.64,32.8,M,13.9,M,,0000*7D
$GNVTG,222.00,T,,M,3.263,N,6.042,K,D*20
$GNGGA,220245.00,3438.37791,S,05834.96336,W,2,12,0.64,32.8,M,13.9,M,,0000*7A
$GNVTG,221.30,T,,M,3.270,N,6.056,K,D*27
$GNGGA,220245.20,3438.37804,S,05834.96350,W,2,12,0.64,32.8,M,13.9,M,,0000*7B
$GNVTG,222.26,T,,M,3.213,N,5.951,K,D*2B
$GNGGA,220245.40,3438.37818,S,05834.96365,W,2,12,0.64,32.8,M,13.9,M,,0000*76
$GNVTG,221.99,T,,M,3.249,N,6.016,K,D*2A
$GNGGA,220245.60,3438.37831,S,05834.96380,W,2,12,0.64,32.8,M,13.9,M,,0000*74
$GNRMC,220245.80,A,3438.37844,S,05834.96395,W,3.293,222.30,031023,,,D*72
$GNVTG,222.30,T,,M,3.293,N,6.099,K,D*2A
$GNGGA,220245.80,3438.37844,S,05834.96395,W,2,12,0.64,32.8,M,13.9,M,,0000*7C
$GNVTG,221.99,T,,M,3.257,N,6.033,K,D*22
$GNGGA,220246.00,3438.37858,S,05834.96409,W,2,12,0.64,32.8,M,13.9,M,,0000*78
$GNVTG,222.51,T,,M,3.282,N,6.078,K,D*22
$GNGGA,220246.20,3438.37871,S,05834.96424,W,2,12,0.64,32.8,M,13.9,M,,0000*7E
$GNVTG,221.11,T,,M,3.254,N,6.026,K,D*25
$GNGGA,220246.40,3438.37885,S,05834.96438,W,2,12,0.68,32.8,M,13.9,M,,0000*72
$GNVTG,221.80,T,,M,3.242,N,6.005,K,D*2B
$GNGGA,220246.60,3438.37898,S,05834.96453,W,2,12,0.64,32.8,M,13.9,M,,0000*7D
$GNRMC,220246.80,A,3438.37912,S,05834.96468,W,3.302,222.45,031023,,,D*7D
$GNVTG,222.45,T,,M,3.302,N,6.116,K,D*27
$GNGGA,220246.80,3438.37912,S,05834.96468,W,2,12,0.64,32.8,M,13.9,M,,0000*78
$GNVTG,222.23,T,,M,3.271,N,6.057,K,D*26
$GNGGA,220247.00,3438.37925,S,05834.96483,W,2,12,0.68,32.8,M,13.9,M,,0000*7C
$GNVTG,222.12,T,,M,3.283,N,6.081,K,D*22
$GNGGA,220247.20,3438.37939,S,05834.96498,W,2,12,0.64,32.8,M,13.9,M,,0000*75
$GNVTG,221.40,T,,M,3.359,N,6.221,K,D*28
$GNGGA,220247.40,3438.37953,S,05834.96513,W,2,12,0.64,32.8,M,13.9,M,,0000*7D
$GNVTG,222.35,T,,M,3.275,N,6.066,K,D*27
$GNGGA,220247.60,3438.37966,S,05834.96528,W,2,12,0.64,32.8,M,13.9,M,,0000*71
$GNRMC,220247.80,A,3438.37980,S,05834.96543,W,3.310,222.24,031023,,,D*7B
$GNVTG,222.24,T,,M,3.310,N,6.130,K,D*27
$GNGGA,220247.80,3438.37980,S,05834.96543,W,2,12,0.64,32.8,M,13.9,M,,0000*7A
$GNVTG,221.05,T,,M,3.359,N,6.220,K,D*28
$GNGGA,220248.00,3438.37994,S,05834.96557,W,2,12,0.64,32.8,M,13.9,M,,0000*7D
$GNVTG,221.97,T,,M,3.318,N,6.145,K,D*26
$GNGGA,220248.20,3438.38008,S,05834.96573,W,2,12,0.64,32.8,M,13.9,M,,0000*7A
$GNVTG,221.80,T,,M,3.249,N,6.017,K,D*23
$GNGGA,220248.40,3438.38021,S,05834.96587,W,2,12,0.64,32.8,M,13.9,M,,0000*7C
$GNVTG,222.24,T,,M,3.316,N,6.142,K,D*24
$GNGGA,220248.60,3438.38035,S,05834.96602,W,2,12,0.64,32.8,M,13.9,M,,0000*75
$GNRMC,220248.80,A,3438.38049,S,05834.96617,W,3.348,221.50,031023,,,D*78
$GNVTG,221.50,T,,M,3.348,N,6.201,K,D*2B
$GNGGA,220248.80,3438.38049,S,05834.96617,W,2,12,0.64,32.8,M,13.9,M,,0000*74
$GNVTG,221.74,T,,M,3.279,N,6.073,K,D*29
$GNGGA,220249.00,3438.38063,S,05834.96632,W,2,12,0.64,32.8,M,13.9,M,,0000*72
$GNVTG,222.24,T,,M,3.355,N,6.214,K,D*23
$GNGGA,220249.20,3438.38076,S,05834.96647,W,2,12,0.64,32.7,M,13.9,M,,0000*79
$GNVTG,221.96,T,,M,3.322,N,6.152,K,D*28
$GNGGA,220249.40,3438.38090,S,05834.96662,W,2,12,0.64,32.7,M,13.9,M,,0000*70
$GNVTG,221.80,T,,M,3.391,N,6.280,K,D*2B
$GNGGA,220249.60,3438.38104,S,05834.96677,W,2,12,0.64,32.7,M,13.9,M,,0000*7A
$GNRMC,220249.80,A,3438.38118,S,05834.96692,W,3.263,222.22,031023,,,D*7F
$GNVTG,222.22,T,,M,3.263,N,6.043,K,D*21
$GNGGA,220249.80,3438.38118,S,05834.96692,W,2,12,0.64,32.7,M,13.9,M,,0000*72
$GNVTG,222.70,T,,M,3.256,N,6.031,K,D*25
$GNGGA,220250.00,3438.38131,S,05834.96707,W,2,12,0.64,32.7,M,13.9,M,,0000*74
$GNVTG,221.73,T,,M,3.286,N,6.086,K,D*24
$GNGGA,220250.20,3438.38145,S,05834.96721,W,2,12,0.64,32.7,M,13.9,M,,0000*71
$GNVTG,222.36,T,,M,3.242,N,6.004,K,D*24
$GNGGA,220250.40,3438.38158,S,05834.96736,W,2,12,0.64,32.7,M,13.9,M,,0000*7D
$GNVTG,221.91,T,,M,3.300,N,6.112,K,D*2B
$GNGGA,220250.60,3438.38171,S,05834.96751,W,2,12,0.64,32.7,M,13.9,M,,0000*75
$GNRMC,220250.80,A,3438.38185,S,05834.96766,W,3.328,222.06,031023,,,D*71
$GNVTG,222.06,T,,M,3.328,N,6.164,K,D*2D
$GNGGA,220250.80,3438.38185,S,05834.96766,W,2,12,0.64,32.7,M,13.9,M,,0000*74
$GNVTG,222.13,T,,M,3.207,N,5.940,K,D*28
$GNGGA,220251.00,3438.38198,S,05834.96780,W,2,12,0.64,32.7,M,13.9,M,,0000*79
$GNVTG,222.29,T,,M,3.225,N,5.973,K,D*21
$GNGGA,220251.20,3438.38212,S,05834.96795,W,2,12,0.64,32.7,M,13.9,M,,0000*7E
$GNVTG,221.22,T,,M,3.266,N,6.049,K,D*2D
$GNGGA,220251.40,3438.38225,S,05834.96809,W,2,12,0.64,32.7,M,13.9,M,,0000*76
$GNVTG,222.09,T,,M,3.161,N,5.855,K,D*25
$GNGGA,220251.60,3438.38238,S,05834.96824,W,2,12,0.64,32.7,M,13.9,M,,0000*77
$GNRMC,220251.80,A,3438.38251,S,05834.96838,W,3.127,222.38,031023,,,D*7E
$GNVTG,222.38,T,,M,3.127,N,5.792,K,D*21
$GNGGA,220251.80,3438.38251,S,05834.96838,W,2,12,0.64,32.7,M,13.9,M,,0000*7B
$GNVTG,221.27,T,,M,3.197,N,5.921,K,D*21
$GNGGA,220252.00,3438.38265,S,05834.96852,W,2,12,0.64,32.7,M,13.9,M,,0000*7B
$GNVTG,221.80,T,,M,3.194,N,5.915,K,D*28
$GNGGA,220252.20,3438.38278,S,05834.96867,W,2,12,0.64,32.7,M,13.9,M,,0000*73
$GNVTG,222.22,T,,M,3.200,N,5.927,K,D*2C
$GNGGA,220252.40,3438.38291,S,05834.96881,W,2,12,0.64,32.7,M,13.9,M,,0000*7A
$GNVTG,221.94,T,,M,3.230,N,5.982,K,D*2E
$GNGGA,220252.60,3438.38304,S,05834.96896,W,2,12,0.64,32.7,M,13.9,M,,0000*73
$GNRMC,220252.80,A,3438.38318,S,05834.96910,W,3.196,221.73,031023,,,D*7C
$GNVTG,221.73,T,,M,3.196,N,5.920,K,D*20
$GNGGA,220252.80,3438.38318,S,05834.96910,W,2,12,0.64,32.7,M,13.9,M,,0000*7F
$GNVTG,222.10,T,,M,3.215,N,5.954,K,D*2D
$GNGGA,220253.00,3438.38331,S,05834.96925,W,2,12,0.64,32.7,M,13.9,M,,0000*7B
$GNVTG,222.00,T,,M,3.295,N,6.103,K,D*2D
$GNGGA,220253.20,3438.38345,S,05834.96940,W,2,12,0.64,32.7,M,13.9,M,,0000*79
$GNVTG,221.75,T,,M,3.213,N,5.950,K,D*2F
$GNGGA,220253.40,3438.38358,S,05834.96954,W,2,12,0.64,32.7,M,13.9,M,,0000*76
$GNVTG,221.69,T,,M,3.211,N,5.946,K,D*27
$GNGGA,220253.60,3438.38372,S,05834.96969,W,2,12,0.64,32.7,M,13.9,M,,0000*72
$GNRMC,220253.80,A,3438.38385,S,05834.96983,W,3.258,221.65,031023,,,D*75
$GNVTG,221.65,T,,M,3.258,N,6.035,K,D*28
$GNGGA,220253.80,3438.38385,S,05834.96983,W,2,12,0.64,32.7,M,13.9,M,,0000*70
$GNVTG,221.98,T,,M,3.287,N,6.087,K,D*21
$GNGGA,220254.00,3438.38399,S,05834.96998,W,2,12,0.64,32.7,M,13.9,M,,0000*78
$GNVTG,222.13,T,,M,3.206,N,5.938,K,D*26
$GNGGA,220254.20,3438.38412,S,05834.97012,W,2,12,0.64,32.7,M,13.9,M,,0000*74
$GNVTG,222.09,T,,M,3.309,N,6.128,K,D*29
$GNGGA,220254.40,3438.38426,S,05834.97027,W,2,12,0.64,32.7,M,13.9,M,,0000*73
$GNVTG,222.01,T,,M,3.358,N,6.219,K,D*24
$GNGGA,220254.60,3438.38440,S,05834.97042,W,2,12,0.64,32.7,M,13.9,M,,0000*72
$GNRMC,220254.80,A,3438.38453,S,05834.97057,W,3.249,222.43,031023,,,D*78
$GNVTG,222.43,T,,M,3.249,N,6.018,K,D*20
$GNGGA,220254.80,3438.38453,S,05834.97057,W,2,12,0.64,32.7,M,13.9,M,,0000*7A
$GNVTG,221.91,T,,M,3.290,N,6.093,K,D*2B
$GNGGA,220255.00,3438.38467,S,05834.97072,W,2,12,0.64,32.7,M,13.9,M,,0000*73
$GNVTG,221.75,T,,M,3.314,N,6.137,K,D*23
$GNGGA,220255.20,3438.38481,S,05834.97086,W,2,12,0.64,32.7,M,13.9,M,,0000*72
$GNVTG,221.86,T,,M,3.323,N,6.155,K,D*2F
$GNGGA,220255.40,3438.38494,S,05834.97101,W,2,12,0.64,32.7,M,13.9,M,,0000*7E
$GNVTG,221.93,T,,M,3.362,N,6.227,K,D*28
$GNGGA,220255.60,3438.38509,S,05834.97117,W,2,12,0.64,32.7,M,13.9,M,,0000*7E
$GNRMC,220255.80,A,3438.38523,S,05834.97132,W,3.376,222.21,031023,,,D*74
$GNVTG,222.21,T,,M,3.376,N,6.253,K,D*24
$GNGGA,220255.80,3438.38523,S,05834.97132,W,2,12,0.64,32.7,M,13.9,M,,0000*7F
$GNVTG,222.08,T,,M,3.445,N,6.380,K,D*27
$GNGGA,220256.00,3438.38537,S,05834.97147,W,2,12,0.64,32.7,M,13.9,M,,0000*73
$GNVTG,221.94,T,,M,3.400,N,6.297,K,D*27
$GNGGA,220256.20,3438.38551,S,05834.97163,W,2,12,0.64,32.7,M,13.9,M,,0000*77
$GNVTG,222.10,T,,M,3.405,N,6.306,K,D*24
$GNGGA,220256.40,3438.38565,S,05834.97178,W,2,12,0.64,32.7,M,13.9,M,,0000*7C
$GNVTG,221.77,T,,M,3.363,N,6.227,K,D*23
$GNGGA,220256.60,3438.38579,S,05834.97193,W,2,12,0.64,32.7,M,13.9,M,,0000*76
$GNRMC,220256.80,A,3438.38593,S,05834.97209,W,3.365,222.56,031023,,,D*75
$GNVTG,222.56,T,,M,3.365,N,6.233,K,D*20
$GNGGA,220256.80,3438.38593,S,05834.97209,W,2,12,0.64,32.7,M,13.9,M,,0000*7C
$GNVTG,222.49,T,,M,3.350,N,6.204,K,D*2C
$GNGGA,220257.00,3438.38607,S,05834.97224,W,2,12,0.64,32.7,M,13.9,M,,0000*74
$GNVTG,222.32,T,,M,3.410,N,6.315,K,D*22
$GNGGA,220257.20,3438.38621,S,05834.97239,W,2,12,0.64,32.7,M,13.9,M,,0000*7E
$GNVTG,222.32,T,,M,3.360,N,6.223,K,D*26
$GNGGA,220257.40,3438.38635,S,05834.97254,W,2,12,0.64,32.7,M,13.9,M,,0000*76
$GNVTG,222.45,T,,M,3.379,N,6.258,K,D*22
$GNGGA,220257.60,3438.38649,S,05834.97270,W,2,12,0.64,32.7,M,13.9,M,,0000*79
$GNRMC,220257.80,A,3438.38663,S,05834.97285,W,3.424,222.08,031023,,,D*75
$GNVTG,222.08,T,,M,3.424,N,6.342,K,D*2E
$GNGGA,220257.80,3438.38663,S,05834.97285,W,2,12,0.64,32.7,M,13.9,M,,0000*75
$GNVTG,222.39,T,,M,3.408,N,6.313,K,D*26
$GNGGA,220258.00,3438.38677,S,05834.97300,W,2,12,0.64,32.7,M,13.9,M,,0000*7B
$GNVTG,223.13,T,,M,3.379,N,6.257,K,D*2F
$GNGGA,220258.20,3438.38691,S,05834.97316,W,2,12,0.64,32.7,M,13.9,M,,0000*76
$GNVTG,222.42,T,,M,3.403,N,6.302,K,D*21
$GNGGA,220258.40,3438.38705,S,05834.97331,W,2,12,0.64,32.7,M,13.9,M,,0000*79
$GNVTG,222.36,T,,M,3.354,N,6.213,K,D*26
$GNGGA,220258.60,3438.38719,S,05834.97347,W,2,12,0.64,32.7,M,13.9,M,,0000*77
$GNRMC,220258.80,A,3438.38733,S,05834.97363,W,3.475,223.12,031023,,,D*79
$GNVTG,223.12,T,,M,3.475,N,6.437,K,D*25
$GNGGA,220258.80,3438.38733,S,05834.97363,W,2,12,0.64,32.7,M,13.9,M,,0000*77
$GNVTG,222.48,T,,M,3.442,N,6.374,K,D*2F
$GNGGA,220259.00,3438.38747,S,05834.97378,W,2,12,0.64,32.7,M,13.9,M,,0000*77
$GNVTG,222.44,T,,M,3.399,N,6.296,K,D*2F
$GNGGA,220259.20,3438.38761,S,05834.97394,W,2,12,0.64,32.7,M,13.9,M,,0000*73
$GNVTG,223.19,T,,M,3.377,N,6.255,K,D*29
$GNGGA,220259.40,3438.38775,S,05834.97409,W,2,12,0.64,32.6,M,13.9,M,,0000*72
$GNVTG,222.51,T,,M,3.460,N,6.408,K,D*2B
$GNGGA,220259.60,3438.38789,S,05834.97425,W,2,12,0.64,32.7,M,13.9,M,,0000*7C
$GNRMC,220259.80,A,3438.38803,S,05834.97440,W,3.380,222.01,031023,,,D*7C
$GNVTG,222.01,T,,M,3.380,N,6.260,K,D*2F
$GNGGA,220259.80,3438.38803,S,05834.97440,W,2,12,0.64,32.7,M,13.9,M,,0000*7C
$GNVTG,222.56,T,,M,3.315,N,6.140,K,D*20
$GNGGA,220300.00,3438.38817,S,05834.97455,W,2,12,0.64,32.7,M,13.9,M,,0000*78
$GNVTG,222.74,T,,M,3.466,N,6.420,K,D*20
$GNGGA,220300.20,3438.38831,S,05834.97471,W,2,12,0.64,32.7,M,13.9,M,,0000*78
$GNVTG,222.83,T,,M,3.426,N,6.345,K,D*28
$GNGGA,220300.40,3438.38845,S,05834.97487,W,2,12,0.64,32.7,M,13.9,M,,0000*74
$GNVTG,221.94,T,,M,3.393,N,6.285,K,D*29
$GNGGA,220300.60,3438.38859,S,05834.97502,W,2,12,0.64,32.6,M,13.9,M,,0000*76
$GNRMC,220300.80,A,3438.38873,S,05834.97517,W,3.358,221.84,031023,,,D*7E
$GNVTG,221.84,T,,M,3.358,N,6.220,K,D*20
$GNGGA,220300.80,3438.38873,S,05834.97517,W,2,12,0.64,32.7,M,13.9,M,,0000*75
$GNVTG,222.34,T,,M,3.203,N,5.931,K,D*2F
$GNGGA,220301.00,3438.38886,S,05834.97531,W,2,12,0.64,32.7,M,13.9,M,,0000*72
$GNVTG,221.46,T,,M,3.185,N,5.899,K,D*27
$GNGGA,220301.20,3438.38900,S,05834.97545,W,2,12,0.64,32.6,M,13.9,M,,0000*7D
$GNVTG,221.93,T,,M,3.051,N,5.651,K,D*2D
$GNGGA,220301.40,3438.38912,S,05834.97559,W,2,12,0.64,32.7,M,13.9,M,,0000*74
$GNVTG,221.64,T,,M,3.099,N,5.740,K,D*20
$GNGGA,220301.60,3438.38925,S,05834.97573,W,2,12,0.64,32.7,M,13.9,M,,0000*7A
$GNRMC,220301.80,A,3438.38938,S,05834.97586,W,2.989,220.86,031023,,,D*7D
$GNVTG,220.86,T,,M,2.989,N,5.535,K,D*24
$GNGGA,220301.80,3438.38938,S,05834.97586,W,2,12,0.64,32.7,M,13.9,M,,0000*72
$GNVTG,221.39,T,,M,2.995,N,5.546,K,D*28
$GNGGA,220302.00,3438.38950,S,05834.97599,W,2,12,0.64,32.6,M,13.9,M,,0000*78
$GNVTG,220.19,T,,M,2.958,N,5.479,K,D*27
$GNGGA,220302.20,3438.38963,S,05834.97612,W,2,12,0.64,32.6,M,13.9,M,,0000*7A
$GNVTG,219.22,T,,M,2.874,N,5.323,K,D*22
$GNGGA,220302.40,3438.38976,S,05834.97623,W,2,12,0.64,32.6,M,13.9,M,,0000*7A
$GNVTG,218.72,T,,M,2.784,N,5.156,K,D*26
$GNGGA,220302.60,3438.38988,S,05834.97635,W,2,12,0.64,32.7,M,13.9,M,,0000*7F
$GNRMC,220302.80,A,3438.38999,S,05834.97645,W,2.618,217.82,031023,,,D*7E
$GNVTG,217.82,T,,M,2.618,N,4.848,K,D*25
$GNGGA,220302.80,3438.38999,S,05834.97645,W,2,12,0.64,32.7,M,13.9,M,,0000*76
$GNVTG,217.28,T,,M,2.574,N,4.766,K,D*2F
$GNGGA,220303.00,3438.39011,S,05834.97656,W,2,12,0.64,32.7,M,13.9,M,,0000*75
$GNVTG,215.95,T,,M,2.470,N,4.574,K,D*2F
$GNGGA,220303.20,3438.39022,S,05834.97665,W,2,12,0.66,32.7,M,13.9,M,,0000*75
$GNVTG,214.82,T,,M,2.376,N,4.400,K,D*2B
$GNGGA,220303.40,3438.39033,S,05834.97674,W,2,12,0.66,32.7,M,13.9,M,,0000*73
$GNVTG,213.03,T,,M,2.196,N,4.066,K,D*2D
$GNGGA,220303.60,3438.39043,S,05834.97682,W,2,12,0.66,32.7,M,13.9,M,,0000*7F
$GNRMC,220303.80,A,3438.39054,S,05834.97690,W,2.294,212.70,031023,,,D*76
$GNVTG,212.70,T,,M,2.294,N,4.248,K,D*27
$GNGGA,220303.80,3438.39054,S,05834.97690,W,2,12,0.64,32.7,M,13.9,M,,0000*76
$GNVTG,212.04,T,,M,2.294,N,4.249,K,D*25
$GNGGA,220304.00,3438.39065,S,05834.97697,W,2,12,0.64,32.7,M,13.9,M,,0000*7C
$GNVTG,210.20,T,,M,2.206,N,4.085,K,D*28
$GNGGA,220304.20,3438.39076,S,05834.97704,W,2,12,0.66,32.7,M,13.9,M,,0000*75
$GNVTG,209.31,T,,M,2.073,N,3.838,K,D*29
$GNGGA,220304.40,3438.39086,S,05834.97711,W,2,12,0.66,32.7,M,13.9,M,,0000*78
$GNVTG,207.82,T,,M,2.042,N,3.782,K,D*23
$GNGGA,220304.60,3438.39096,S,05834.97717,W,2,12,0.66,32.7,M,13.9,M,,0000*7D
$GNRMC,220304.80,A,3438.39107,S,05834.97723,W,2.112,207.25,031023,,,D*76
$GNVTG,207.25,T,,M,2.112,N,3.911,K,D*2E
$GNGGA,220304.80,3438.39107,S,05834.97723,W,2,12,0.66,32.7,M,13.9,M,,0000*7D
$GNVTG,205.10,T,,M,2.067,N,3.828,K,D*22
$GNGGA,220305.00,3438.39118,S,05834.97728,W,2,12,0.66,32.7,M,13.9,M,,0000*71
$GNVTG,202.88,T,,M,2.081,N,3.854,K,D*27
$GNGGA,220305.20,3438.39128,S,05834.97733,W,2,12,0.66,32.7,M,13.9,M,,0000*7A
$GNVTG,201.23,T,,M,2.151,N,3.984,K,D*25
$GNGGA,220305.40,3438.39140,S,05834.97738,W,2,12,0.66,32.7,M,13.9,M,,0000*79
$GNVTG,199.34,T,,M,2.102,N,3.893,K,D*20
$GNGGA,220305.60,3438.39151,S,05834.97742,W,2,12,0.66,32.7,M,13.9,M,,0000*76
$GNRMC,220305.80,A,3438.39162,S,05834.97746,W,2.064,197.55,031023,,,D*7A
$GNVTG,197.55,T,,M,2.064,N,3.823,K,D*23
$GNGGA,220305.80,3438.39162,S,05834.97746,W,2,12,0.66,32.7,M,13.9,M,,0000*7C
$GNVTG,195.22,T,,M,2.093,N,3.876,K,D*29
$GNGGA,220306.00,3438.39174,S,05834.97749,W,2,12,0.66,32.7,M,13.9,M,,0000*7F
$GNVTG,193.85,T,,M,2.024,N,3.749,K,D*2D
$GNGGA,220306.20,3438.39185,S,05834.97752,W,2,12,0.66,32.7,M,13.9,M,,0000*79
$GNVTG,190.96,T,,M,2.028,N,3.757,K,D*2F
$GNGGA,220306.40,3438.39196,S,05834.97754,W,2,12,0.66,32.7,M,13.9,M,,0000*7B
$GNVTG,189.25,T,,M,1.986,N,3.678,K,D*2D
$GNGGA,220306.60,3438.39207,S,05834.97756,W,2,12,0.66,32.7,M,13.9,M,,0000*70
$GNRMC,220306.80,A,3438.39218,S,05834.97757,W,2.049,188.02,031023,,,D*74
$GNVTG,188.02,T,,M,2.049,N,3.795,K,D*22
$GNGGA,220306.80,3438.39218,S,05834.97757,W,2,12,0.66,32.7,M,13.9,M,,0000*71
$GNVTG,185.59,T,,M,2.091,N,3.872,K,D*22
$GNGGA,220307.00,3438.39230,S,05834.97758,W,2,12,0.66,32.7,M,13.9,M,,0000*7D
$GNVTG,183.03,T,,M,2.044,N,3.785,K,D*24
$GNGGA,220307.20,3438.39242,S,05834.97758,W,2,12,0.66,32.7,M,13.9,M,,0000*7A
$GNVTG,182.12,T,,M,2.084,N,3.860,K,D*2D
$GNGGA,220307.40,3438.39253,S,05834.97758,W,2,12,0.66,32.7,M,13.9,M,,0000*7C
$GNVTG,180.41,T,,M,2.192,N,4.059,K,D*2A
$GNGGA,220307.60,3438.39266,S,05834.97758,W,2,12,0.66,32.7,M,13.9,M,,0000*78
$GNRMC,220307.80,A,3438.39278,S,05834.97756,W,2.253,176.55,031023,,,D*78
$GNVTG,176.55,T,,M,2.253,N,4.173,K,D*21
$GNGGA,220307.80,3438.39278,S,05834.97756,W,2,12,0.66,32.7,M,13.9,M,,0000*77
$GNVTG,176.18,T,,M,2.182,N,4.041,K,D*27
$GNGGA,220308.00,3438.39290,S,05834.97755,W,2,12,0.66,32.7,M,13.9,M,,0000*75
$GNVTG,173.52,T,,M,2.252,N,4.171,K,D*20
$GNGGA,220308.20,3438.39303,S,05834.97752,W,2,12,0.64,32.7,M,13.9,M,,0000*79
$GNVTG,170.85,T,,M,2.272,N,4.207,K,D*29
$GNGGA,220308.40,3438.39315,S,05834.97749,W,2,12,0.64,32.7,M,13.9,M,,0000*72
$GNVTG,168.52,T,,M,2.303,N,4.264,K,D*28
$GNGGA,220308.60,3438.39328,S,05834.97746,W,2,12,0.66,32.7,M,13.9,M,,0000*73
$GNRMC,220308.80,A,3438.39340,S,05834.97741,W,2.310,166.36,031023,,,D*79
$GNVTG,166.36,T,,M,2.310,N,4.277,K,D*24
$GNGGA,220308.80,3438.39340,S,05834.97741,W,2,12,0.66,32.7,M,13.9,M,,0000*74
$GNVTG,163.15,T,,M,2.340,N,4.334,K,D*23
$GNGGA,220309.00,3438.39352,S,05834.97736,W,2,12,0.66,32.7,M,13.9,M,,0000*7E
$GNVTG,161.70,T,,M,2.347,N,4.347,K,D*21
$GNGGA,220309.20,3438.39365,S,05834.97730,W,2,12,0.66,32.7,M,13.9,M,,0000*7E
$GNVTG,158.78,T,,M,2.374,N,4.396,K,D*2F
$GNGGA,220309.40,3438.39377,S,05834.97724,W,2,12,0.64,32.7,M,13.9,M,,0000*7C
$GNVTG,156.80,T,,M,2.469,N,4.573,K,D*20
$GNGGA,220309.60,3438.39389,S,05834.97717,W,2,12,0.64,32.7,M,13.9,M,,0000*7F
$GNRMC,220309.80,A,3438.39402,S,05834.97709,W,2.455,155.43,031023,,,D*71
$GNVTG,155.43,T,,M,2.455,N,4.547,K,D*24
$GNGGA,220309.80,3438.39402,S,05834.97709,W,2,12,0.64,32.7,M,13.9,M,,0000*7A
$GNVTG,152.77,T,,M,2.478,N,4.589,K,D*29
$GNGGA,220310.00,3438.39414,S,05834.97701,W,2,12,0.64,32.7,M,13.9,M,,0000*75
$GNVTG,149.91,T,,M,2.452,N,4.540,K,D*26
$GNGGA,220310.20,3438.39425,S,05834.97692,W,2,12,0.64,32.7,M,13.9,M,,0000*7E
$GNVTG,145.81,T,,M,2.581,N,4.780,K,D*2A
$GNGGA,220310.40,3438.39437,S,05834.97681,W,2,12,0.64,32.7,M,13.9,M,,0000*79
$GNVTG,142.25,T,,M,2.529,N,4.683,K,D*23
$GNGGA,220310.60,3438.39448,S,05834.97670,W,2,12,0.64,32.7,M,13.9,M,,0000*7D
$GNRMC,220310.80,A,3438.39458,S,05834.97658,W,2.589,140.16,031023,,,D*77
$GNVTG,140.16,T,,M,2.589,N,4.795,K,D*2D
$GNGGA,220310.80,3438.39458,S,05834.97658,W,2,12,0.64,32.7,M,13.9,M,,0000*78
$GNVTG,138.21,T,,M,2.627,N,4.865,K,D*21
$GNGGA,220311.00,3438.39469,S,05834.97646,W,2,12,0.64,32.7,M,13.9,M,,0000*7C
$GNVTG,134.43,T,,M,2.692,N,4.985,K,D*28
$GNGGA,220311.20,3438.39479,S,05834.97632,W,2,12,0.64,32.7,M,13.9,M,,0000*7C
$GNVTG,132.05,T,,M,2.671,N,4.947,K,D*2F
$GNGGA,220311.40,3438.39489,S,05834.97618,W,2,12,0.64,32.7,M,13.9,M,,0000*7D
$GNVTG,128.96,T,,M,2.612,N,4.838,K,D*22
$GNGGA,220311.60,3438.39497,S,05834.97604,W,2,12,0.64,32.7,M,13.9,M,,0000*7D
$GNRMC,220311.80,A,3438.39505,S,05834.97589,W,2.622,126.59,031023,,,D*79
$GNVTG,126.59,T,,M,2.622,N,4.856,K,D*24
$GNGGA,220311.80,3438.39505,S,05834.97589,W,2,12,0.64,32.7,M,13.9,M,,0000*7F
$GNVTG,123.12,T,,M,2.645,N,4.898,K,D*2D
$GNGGA,220312.00,3438.39513,S,05834.97574,W,2,12,0.64,32.7,M,13.9,M,,0000*71
$GNVTG,120.83,T,,M,2.627,N,4.865,K,D*20
$GNGGA,220312.20,3438.39520,S,05834.97558,W,2,12,0.64,32.7,M,13.9,M,,0000*7D
$GNVTG,118.68,T,,M,2.572,N,4.763,K,D*24
$GNGGA,220312.40,3438.39526,S,05834.97543,W,2,12,0.64,32.7,M,13.9,M,,0000*77
$GNVTG,115.30,T,,M,2.631,N,4.873,K,D*2E
$GNGGA,220312.60,3438.39532,S,05834.97526,W,2,12,0.64,32.7,M,13.9,M,,0000*73
$GNRMC,220312.80,A,3438.39537,S,05834.97510,W,2.569,112.71,031023,,,D*7A
$GNVTG,112.71,T,,M,2.569,N,4.758,K,D*24
$GNGGA,220312.80,3438.39537,S,05834.97510,W,2,12,0.64,32.7,M,13.9,M,,0000*7D
$GNVTG,108.73,T,,M,2.605,N,4.824,K,D*20
$GNGGA,220313.00,3438.39540,S,05834.97493,W,2,12,0.64,32.7,M,13.9,M,,0000*7E
$GNVTG,105.93,T,,M,2.587,N,4.791,K,D*2B
$GNGGA,220313.20,3438.39544,S,05834.97475,W,2,12,0.64,32.7,M,13.9,M,,0000*70
$GNVTG,102.79,T,,M,2.704,N,5.007,K,D*28
$GNGGA,220313.40,3438.39547,S,05834.97457,W,2,12,0.64,32.7,M,13.9,M,,0000*75
$GNVTG,99.75,T,,M,2.693,N,4.988,K,D*17
$GNGGA,220313.60,3438.39548,S,05834.97439,W,2,12,0.64,32.7,M,13.9,M,,0000*70
$GNRMC,220313.80,A,3438.39550,S,05834.97421,W,2.732,97.66,031023,,,D*4F
$GNVTG,97.66,T,,M,2.732,N,5.060,K,D*1F
$GNGGA,220313.80,3438.39550,S,05834.97421,W,2,12,0.64,32.7,M,13.9,M,,0000*7E
$GNVTG,95.13,T,,M,2.647,N,4.902,K,D*10
$GNGGA,220314.00,3438.39551,S,05834.97403,W,2,12,0.64,32.7,M,13.9,M,,0000*70
$GNVTG,92.30,T,,M,2.721,N,5.040,K,D*19
$GNGGA,220314.20,3438.39551,S,05834.97385,W,2,12,0.66,32.7,M,13.9,M,,0000*79
$GNVTG,89.26,T,,M,2.709,N,5.018,K,D*13
$GNGGA,220314.40,3438.39550,S,05834.97366,W,2,12,0.64,32.7,M,13.9,M,,0000*71
$GNVTG,86.56,T,,M,2.787,N,5.161,K,D*12
$GNGGA,220314.60,3438.39548,S,05834.97348,W,2,12,0.64,32.7,M,13.9,M,,0000*76
$GNRMC,220314.80,A,3438.39546,S,05834.97329,W,2.748,84.06,031023,,,D*49
$GNVTG,84.06,T,,M,2.748,N,5.089,K,D*11
$GNGGA,220314.80,3438.39546,S,05834.97329,W,2,12,0.64,32.7,M,13.9,M,,0000*71
$GNVTG,80.46,T,,M,2.781,N,5.150,K,D*11
$GNGGA,220315.00,3438.39543,S,05834.97311,W,2,12,0.64,32.7,M,13.9,M,,0000*76
$GNVTG,77.16,T,,M,2.737,N,5.069,K,D*1A
$GNGGA,220315.20,3438.39539,S,05834.97293,W,2,12,0.64,32.6,M,13.9,M,,0000*73
$GNVTG,73.69,T,,M,2.739,N,5.072,K,D*12
$GNGGA,220315.40,3438.39534,S,05834.97276,W,2,12,0.64,32.6,M,13.9,M,,0000*73
$GNVTG,71.34,T,,M,2.769,N,5.128,K,D*13
$GNGGA,220315.60,3438.39528,S,05834.97258,W,2,12,0.64,32.6,M,13.9,M,,0000*70
$GNRMC,220315.80,A,3438.39522,S,05834.97241,W,2.757,68.71,031023,,,D*49
$GNVTG,68.71,T,,M,2.757,N,5.105,K,D*18
$GNGGA,220315.80,3438.39522,S,05834.97241,W,2,12,0.64,32.6,M,13.9,M,,0000*7C
$GNVTG,65.64,T,,M,2.849,N,5.277,K,D*17
$GNGGA,220316.00,3438.39515,S,05834.97224,W,2,12,0.64,32.6,M,13.9,M,,0000*70
$GNVTG,62.43,T,,M,2.802,N,5.190,K,D*10
$GNGGA,220316.20,3438.39507,S,05834.97208,W,2,12,0.64,32.6,M,13.9,M,,0000*7F
$GNVTG,58.79,T,,M,2.788,N,5.164,K,D*16
$GNGGA,220316.40,3438.39498,S,05834.97192,W,2,12,0.64,32.6,M,13.9,M,,0000*7E
$GNVTG,57.27,T,,M,2.878,N,5.331,K,D*10
$GNGGA,220316.60,3438.39489,S,05834.97176,W,2,12,0.64,32.6,M,13.9,M,,0000*76
$GNRMC,220316.80,A,3438.39480,S,05834.97162,W,2.851,54.64,031023,,,D*43
$GNVTG,54.64,T,,M,2.851,N,5.279,K,D*12
$GNGGA,220316.80,3438.39480,S,05834.97162,W,2,12,0.64,32.6,M,13.9,M,,0000*74
$GNVTG,51.98,T,,M,3.027,N,5.607,K,D*11
$GNGGA,220317.00,3438.39469,S,05834.97146,W,2,12,0.64,32.6,M,13.9,M,,0000*7C
$GNVTG,50.28,T,,M,3.013,N,5.580,K,D*10
$GNGGA,220317.20,3438.39458,S,05834.97131,W,2,12,0.64,32.6,M,13.9,M,,0000*7C
$GNVTG,47.79,T,,M,3.079,N,5.702,K,D*16
$GNGGA,220317.40,3438.39447,S,05834.97117,W,2,12,0.64,32.6,M,13.9,M,,0000*70
$GNVTG,46.13,T,,M,3.139,N,5.813,K,D*11
$GNGGA,220317.60,3438.39434,S,05834.97103,W,2,12,0.64,32.6,M,13.9,M,,0000*73
$GNRMC,220317.80,A,3438.39422,S,05834.97088,W,3.185,44.92,031023,,,D*46
$GNVTG,44.92,T,,M,3.185,N,5.899,K,D*1F
$GNGGA,220317.80,3438.39422,S,05834.97088,W,2,12,0.64,32.6,M,13.9,M,,0000*78
$GNVTG,43.47,T,,M,3.231,N,5.984,K,D*11
$GNGGA,220318.00,3438.39408,S,05834.97074,W,2,12,0.64,32.6,M,13.9,M,,0000*74
$GNVTG,42.65,T,,M,3.210,N,5.945,K,D*1E
$GNGGA,220318.20,3438.39395,S,05834.97059,W,2,12,0.64,32.6,M,13.9,M,,0000*7A
$GNVTG,41.90,T,,M,3.210,N,5.945,K,D*17
$GNGGA,220318.40,3438.39382,S,05834.97046,W,2,12,0.64,32.6,M,13.9,M,,0000*74
$GNVTG,41.18,T,,M,3.119,N,5.777,K,D*12
$GNGGA,220318.60,3438.39369,S,05834.97032,W,2,12,0.64,32.6,M,13.9,M,,0000*70
$GNRMC,220318.80,A,3438.39356,S,05834.97018,W,3.238,41.85,031023,,,D*42
$GNVTG,41.85,T,,M,3.238,N,5.997,K,D*16
$GNGGA,220318.80,3438.39356,S,05834.97018,W,2,12,0.64,32.6,M,13.9,M,,0000*7A
$GNVTG,41.43,T,,M,3.216,N,5.955,K,D*1E
$GNGGA,220319.00,3438.39343,S,05834.97003,W,2,12,0.64,32.6,M,13.9,M,,0000*7D
$GNVTG,42.62,T,,M,3.276,N,6.068,K,D*1C
$GNGGA,220319.20,3438.39330,S,05834.96988,W,2,12,0.64,32.6,M,13.9,M,,0000*70
$GNVTG,42.97,T,,M,3.289,N,6.091,K,D*10
$GNGGA,220319.40,3438.39316,S,05834.96973,W,2,12,0.64,32.5,M,13.9,M,,0000*75
$GNVTG,43.67,T,,M,3.254,N,6.027,K,D*13
$GNGGA,220319.60,3438.39304,S,05834.96958,W,2,12,0.64,32.5,M,13.9,M,,0000*7D
$GNRMC,220319.80,A,3438.39290,S,05834.96942,W,3.344,43.35,031023,,,D*4C
$GNVTG,43.35,T,,M,3.344,N,6.194,K,D*1D
$GNGGA,220319.80,3438.39290,S,05834.96942,W,2,12,0.64,32.5,M,13.9,M,,0000*74
$GNVTG,43.64,T,,M,3.337,N,6.180,K,D*18
$GNGGA,220320.00,3438.39277,S,05834.96927,W,2,12,0.64,32.5,M,13.9,M,,0000*7C
$GNVTG,43.39,T,,M,3.279,N,6.073,K,D*16
$GNGGA,220320.20,3438.39264,S,05834.96912,W,2,12,0.64,32.6,M,13.9,M,,0000*79
$GNVTG,43.99,T,,M,3.257,N,6.033,K,D*14
$GNGGA,220320.40,3438.39251,S,05834.96897,W,2,12,0.64,32.6,M,13.9,M,,0000*75
$GNVTG,44.11,T,,M,3.261,N,6.040,K,D*12
$GNGGA,220320.60,3438.39238,S,05834.96881,W,2,12,0.64,32.6,M,13.9,M,,0000*7F
$GNRMC,220320.80,A,3438.39225,S,05834.96866,W,3.273,43.75,031023,,,D*4E
$GNVTG,43.75,T,,M,3.273,N,6.062,K,D*14
$GNGGA,220320.80,3438.39225,S,05834.96866,W,2,12,0.64,32.5,M,13.9,M,,0000*77
$GNVTG,44.13,T,,M,3.277,N,6.068,K,D*1D
$GNGGA,220321.00,3438.39212,S,05834.96851,W,2,12,0.64,32.5,M,13.9,M,,0000*7E
$GNVTG,43.56,T,,M,3.271,N,6.058,K,D*1E
$GNGGA,220321.20,3438.39198,S,05834.96836,W,2,12,0.64,32.5,M,13.9,M,,0000*7C
$GNVTG,43.63,T,,M,3.225,N,5.972,K,D*1B
$GNGGA,220321.40,3438.39185,S,05834.96821,W,2,12,0.64,32.5,M,13.9,M,,0000*70
$GNVTG,43.53,T,,M,3.222,N,5.967,K,D*1B
$GNGGA,220321.60,3438.39173,S,05834.96806,W,2,12,0.64,32.6,M,13.9,M,,0000*7D
$GNRMC,220321.80,A,3438.39159,S,05834.96791,W,3.236,43.04,031023,,,D*47
$GNVTG,43.04,T,,M,3.236,N,5.993,K,D*17
$GNGGA,220321.80,3438.39159,S,05834.96791,W,2,12,0.64,32.6,M,13.9,M,,0000*7A
$GNVTG,43.65,T,,M,3.218,N,5.961,K,D*11
$GNGGA,220322.00,3438.39147,S,05834.96776,W,2,12,0.64,32.6,M,13.9,M,,0000*77
$GNVTG,42.70,T,,M,3.222,N,5.967,K,D*1B
$GNGGA,220322.20,3438.39133,S,05834.96762,W,2,12,0.64,32.6,M,13.9,M,,0000*73
$GNVTG,43.12,T,,M,3.221,N,5.965,K,D*1F
$GNGGA,220322.40,3438.39120,S,05834.96747,W,2,12,0.64,32.6,M,13.9,M,,0000*70
$GNVTG,42.73,T,,M,3.203,N,5.932,K,D*1B
$GNGGA,220322.60,3438.39107,S,05834.96732,W,2,12,0.64,32.6,M,13.9,M,,0000*75
$GNRMC,220322.80,A,3438.39094,S,05834.96717,W,3.190,42.56,031023,,,D*43
$GNVTG,42.56,T,,M,3.190,N,5.908,K,D*1C
$GNGGA,220322.80,3438.39094,S,05834.96717,W,2,12,0.64,32.6,M,13.9,M,,0000*77
$GNVTG,42.60,T,,M,3.169,N,5.869,K,D*19
$GNGGA,220323.00,3438.39081,S,05834.96703,W,2,12,0.64,32.6,M,13.9,M,,0000*7F
$GNVTG,42.35,T,,M,3.137,N,5.810,K,D*1C
$GNGGA,220323.20,3438.39068,S,05834.96688,W,2,12,0.64,32.6,M,13.9,M,,0000*78
$GNVTG,42.81,T,,M,3.138,N,5.812,K,D*1E
$GNGGA,220323.40,3438.39056,S,05834.96674,W,2,12,0.64,32.6,M,13.9,M,,0000*70
$GNVTG,42.30,T,,M,3.127,N,5.791,K,D*1E
$GNGGA,220323.60,3438.39043,S,05834.96660,W,2,12,0.64,32.6,M,13.9,M,,0000*73
$GNRMC,220323.80,A,3438.39030,S,05834.96645,W,3.136,42.53,031023,,,D*43
$GNVTG,42.53,T,,M,3.136,N,5.808,K,D*14
$GNGGA,220323.80,3438.39030,S,05834.96645,W,2,12,0.64,32.6,M,13.9,M,,0000*7E
$GNVTG,42.91,T,,M,3.135,N,5.807,K,D*16
$GNGGA,220324.00,3438.39017,S,05834.96631,W,2,12,0.64,32.6,M,13.9,M,,0000*77
$GNVTG,42.60,T,,M,3.170,N,5.871,K,D*18
$GNGGA,220324.20,3438.39004,S,05834.96616,W,2,12,0.64,32.6,M,13.9,M,,0000*72
$GNVTG,42.66,T,,M,3.196,N,5.919,K,D*19
$GNGGA,220324.40,3438.38991,S,05834.96601,W,2,12,0.64,32.6,M,13.9,M,,0000*76
$GNVTG,41.78,T,,M,3.180,N,5.889,K,D*1A
$GNGGA,220324.60,3438.38978,S,05834.96587,W,2,12,0.64,32.6,M,13.9,M,,0000*7E
$GNRMC,220324.80,A,3438.38966,S,05834.96573,W,3.090,42.21,031023,,,D*41
$GNVTG,42.21,T,,M,3.090,N,5.723,K,D*1A
$GNGGA,220324.80,3438.38966,S,05834.96573,W,2,12,0.64,32.6,M,13.9,M,,0000*74
$GNVTG,42.62,T,,M,3.200,N,5.926,K,D*1D
$GNGGA,220325.00,3438.38953,S,05834.96558,W,2,12,0.64,32.7,M,13.9,M,,0000*73
$GNVTG,42.36,T,,M,3.109,N,5.757,K,D*1E
$GNGGA,220325.20,3438.38940,S,05834.96544,W,2,12,0.64,32.7,M,13.9,M,,0000*7E
$GNVTG,43.15,T,,M,3.122,N,5.783,K,D*1E
$GNGGA,220325.40,3438.38927,S,05834.96530,W,2,12,0.64,32.7,M,13.9,M,,0000*7A
$GNVTG,42.37,T,,M,3.176,N,5.881,K,D*13
$GNGGA,220325.60,3438.38914,S,05834.96515,W,2,12,0.64,32.7,M,13.9,M,,0000*7F
$GNRMC,220325.80,A,3438.38901,S,05834.96501,W,3.141,41.88,031023,,,D*49
$GNVTG,41.88,T,,M,3.141,N,5.817,K,D*1F
$GNGGA,220325.80,3438.38901,S,05834.96501,W,2,12,0.64,32.7,M,13.9,M,,0000*70
$GNVTG,42.26,T,,M,3.173,N,5.876,K,D*1E
$GNGGA,220326.00,3438.38888,S,05834.96487,W,2,12,0.64,32.7,M,13.9,M,,0000*74
$GNVTG,42.89,T,,M,3.153,N,5.839,K,D*12
$GNGGA,220326.20,3438.38876,S,05834.96472,W,2,12,0.64,32.7,M,13.9,M,,0000*7D
$GNVTG,42.59,T,,M,3.163,N,5.858,K,D*1B
$GNGGA,220326.40,3438.38863,S,05834.96458,W,2,12,0.64,32.7,M,13.9,M,,0000*77
$GNVTG,41.55,T,,M,3.166,N,5.863,K,D*19
$GNGGA,220326.60,3438.38849,S,05834.96444,W,2,12,0.64,32.7,M,13.9,M,,0000*70
$GNRMC,220326.80,A,3438.38836,S,05834.96429,W,3.166,42.14,031023,,,D*47
$GNVTG,42.14,T,,M,3.166,N,5.863,K,D*1F
$GNGGA,220326.80,3438.38836,S,05834.96429,W,2,12,0.64,32.7,M,13.9,M,,0000*7D
$GNVTG,42.54,T,,M,3.149,N,5.832,K,D*12
$GNGGA,220327.00,3438.38823,S,05834.96415,W,2,12,0.64,32.7,M,13.9,M,,0000*7F
$GNVTG,42.04,T,,M,3.187,N,5.902,K,D*17
$GNGGA,220327.20,3438.38810,S,05834.96401,W,2,12,0.64,32.7,M,13.9,M,,0000*78
$GNVTG,41.55,T,,M,3.193,N,5.913,K,D*15
$GNGGA,220327.40,3438.38797,S,05834.96386,W,2,12,0.64,32.7,M,13.9,M,,0000*76
$GNVTG,41.77,T,,M,3.234,N,5.990,K,D*10
$GNGGA,220327.60,3438.38783,S,05834.96372,W,2,12,0.64,32.7,M,13.9,M,,0000*7A
$GNRMC,220327.80,A,3438.38770,S,05834.96357,W,3.271,41.92,031023,,,D*4D
$GNVTG,41.92,T,,M,3.271,N,6.059,K,D*15
$GNGGA,220327.80,3438.38770,S,05834.96357,W,2,12,0.64,32.7,M,13.9,M,,0000*7F
$GNVTG,41.52,T,,M,3.305,N,6.120,K,D*14
$GNGGA,220328.00,3438.38756,S,05834.96342,W,2,12,0.64,32.7,M,13.9,M,,0000*78
$GNVTG,41.56,T,,M,3.343,N,6.191,K,D*18
$GNGGA,220328.20,3438.38742,S,05834.96327,W,2,12,0.64,32.7,M,13.9,M,,0000*7C
$GNVTG,41.62,T,,M,3.250,N,6.018,K,D*1C
$GNGGA,220328.40,3438.38729,S,05834.96313,W,2,12,0.64,32.7,M,13.9,M,,0000*70
$GNVTG,41.97,T,,M,3.234,N,5.989,K,D*16
$GNGGA,220328.60,3438.38715,S,05834.96298,W,2,12,0.64,32.7,M,13.9,M,,0000*7F
$GNRMC,220328.80,A,3438.38702,S,05834.96283,W,3.196,42.26,031023,,,D*49
$GNVTG,42.26,T,,M,3.196,N,5.919,K,D*1D
$GNGGA,220328.80,3438.38702,S,05834.96283,W,2,12,0.64,32.7,M,13.9,M,,0000*7D
$GNVTG,41.47,T,,M,3.272,N,6.060,K,D*14
$GNGGA,220329.00,3438.38688,S,05834.96269,W,2,12,0.64,32.7,M,13.9,M,,0000*73
$GNVTG,41.62,T,,M,3.246,N,6.012,K,D*11
$GNGGA,220329.20,3438.38675,S,05834.96254,W,2,12,0.64,32.7,M,13.9,M,,0000*7D
$GNVTG,41.56,T,,M,3.313,N,6.135,K,D*13
$GNGGA,220329.40,3438.38661,S,05834.96239,W,2,12,0.64,32.7,M,13.9,M,,0000*75
$GNVTG,41.91,T,,M,3.314,N,6.138,K,D*12
$GNGGA,220329.60,3438.38647,S,05834.96224,W,2,12,0.64,32.7,M,13.9,M,,0000*7F
$GNRMC,220329.80,A,3438.38634,S,05834.96209,W,3.311,41.78,031023,,,D*4B
$GNVTG,41.78,T,,M,3.311,N,6.131,K,D*19
$GNGGA,220329.80,3438.38634,S,05834.96209,W,2,12,0.64,32.7,M,13.9,M,,0000*7A
$GNVTG,41.45,T,,M,3.314,N,6.138,K,D*1B
$GNGGA,220330.00,3438.38620,S,05834.96194,W,2,12,0.64,32.7,M,13.9,M,,0000*78
$GNVTG,41.43,T,,M,3.249,N,6.017,K,D*18
$GNGGA,220330.20,3438.38606,S,05834.96180,W,2,12,0.66,32.7,M,13.9,M,,0000*79
$GNVTG,41.49,T,,M,3.224,N,5.971,K,D*13
$GNGGA,220330.40,3438.38593,S,05834.96166,W,2,12,0.64,32.7,M,13.9,M,,0000*7A
$GNVTG,41.01,T,,M,3.213,N,5.950,K,D*18
$GNGGA,220330.60,3438.38579,S,05834.96152,W,2,12,0.64,32.7,M,13.9,M,,0000*7B
$GNRMC,220330.80,A,3438.38566,S,05834.96137,W,3.212,42.03,031023,,,D*44
$GNVTG,42.03,T,,M,3.212,N,5.949,K,D*10
$GNGGA,220330.80,3438.38566,S,05834.96137,W,2,12,0.64,32.7,M,13.9,M,,0000*78
$GNVTG,41.68,T,,M,3.243,N,6.006,K,D*1B
$GNGGA,220331.00,3438.38552,S,05834.96123,W,2,12,0.64,32.7,M,13.9,M,,0000*73
$GNVTG,41.63,T,,M,3.239,N,5.999,K,D*11
$GNGGA,220331.20,3438.38538,S,05834.96108,W,2,12,0.64,32.7,M,13.9,M,,0000*74
$GNVTG,41.35,T,,M,3.218,N,5.961,K,D*16
$GNGGA,220331.40,3438.38525,S,05834.96094,W,2,12,0.64,32.7,M,13.9,M,,0000*7A
$GNVTG,41.47,T,,M,3.242,N,6.005,K,D*14
$GNGGA,220331.60,3438.38511,S,05834.96079,W,2,12,0.64,32.7,M,13.9,M,,0000*7C
$GNRMC,220331.80,A,3438.38498,S,05834.96065,W,3.209,41.56,031023,,,D*4A
$GNVTG,41.56,T,,M,3.209,N,5.943,K,D*13
$GNGGA,220331.80,3438.38498,S,05834.96065,W,2,12,0.64,32.7,M,13.9,M,,0000*7F
$GNVTG,41.09,T,,M,3.219,N,5.962,K,D*1B
$GNGGA,220332.00,3438.38484,S,05834.96050,W,2,12,0.64,32.7,M,13.9,M,,0000*7F
$GNVTG,41.58,T,,M,3.173,N,5.876,K,D*14
$GNGGA,220332.20,3438.38471,S,05834.96036,W,2,12,0.64,32.7,M,13.9,M,,0000*77
$GNVTG,41.37,T,,M,3.216,N,5.956,K,D*1E
$GNGGA,220332.40,3438.38457,S,05834.96022,W,2,12,0.64,32.7,M,13.9,M,,0000*70
$GNVTG,41.50,T,,M,3.204,N,5.933,K,D*1F
$GNGGA,220332.60,3438.38444,S,05834.96007,W,2,12,0.64,32.7,M,13.9,M,,0000*77
$GNRMC,220332.80,A,3438.38430,S,05834.95993,W,3.247,41.12,031023,,,D*42
$GNVTG,41.12,T,,M,3.247,N,6.014,K,D*11
$GNGGA,220332.80,3438.38430,S,05834.95993,W,2,12,0.64,32.7,M,13.9,M,,0000*7D
$GNVTG,41.37,T,,M,3.220,N,5.963,K,D*1D
$GNGGA,220333.00,3438.38417,S,05834.95979,W,2,12,0.64,32.7,M,13.9,M,,0000*75
$GNVTG,41.31,T,,M,3.218,N,5.960,K,D*13
$GNGGA,220333.20,3438.38403,S,05834.95964,W,2,12,0.64,32.7,M,13.9,M,,0000*7E
$GNVTG,41.28,T,,M,3.183,N,5.896,K,D*12
$GNGGA,220333.40,3438.38390,S,05834.95950,W,2,12,0.64,32.7,M,13.9,M,,0000*72
$GNVTG,41.03,T,,M,3.190,N,5.908,K,D*1F
$GNGGA,220333.60,3438.38376,S,05834.95936,W,2,12,0.64,32.7,M,13.9,M,,0000*78
$GNRMC,220333.80,A,3438.38363,S,05834.95922,W,3.177,41.52,031023,,,D*4C
$GNVTG,41.52,T,,M,3.177,N,5.884,K,D*17
$GNGGA,220333.80,3438.38363,S,05834.95922,W,2,12,0.64,32.7,M,13.9,M,,0000*77
$GNVTG,41.37,T,,M,3.193,N,5.914,K,D*16
$GNGGA,220334.00,3438.38349,S,05834.95908,W,2,12,0.64,32.7,M,13.9,M,,0000*78
$GNVTG,40.78,T,,M,3.247,N,6.013,K,D*1B
$GNGGA,220334.20,3438.38335,S,05834.95893,W,2,12,0.64,32.7,M,13.9,M,,0000*72
$GNVTG,40.77,T,,M,3.216,N,5.956,K,D*1B
$GNGGA,220334.40,3438.38322,S,05834.95879,W,2,12,0.64,32.7,M,13.9,M,,0000*76
$GNVTG,41.31,T,,M,3.187,N,5.903,K,D*13
$GNGGA,220334.60,3438.38309,S,05834.95865,W,2,12,0.64,32.7,M,13.9,M,,0000*70
$GNRMC,220334.80,A,3438.38295,S,05834.95851,W,3.181,40.61,031023,,,D*4E
$GNVTG,40.61,T,,M,3.181,N,5.892,K,D*18
$GNGGA,220334.80,3438.38295,S,05834.95851,W,2,12,0.64,32.7,M,13.9,M,,0000*7D
$GNVTG,41.22,T,,M,3.264,N,6.044,K,D*16
$GNGGA,220335.00,3438.38281,S,05834.95837,W,2,12,0.64,32.7,M,13.9,M,,0000*71
$GNVTG,40.98,T,,M,3.256,N,6.030,K,D*14
$GNGGA,220335.20,3438.38268,S,05834.95822,W,2,12,0.64,32.7,M,13.9,M,,0000*70
$GNVTG,41.14,T,,M,3.225,N,5.973,K,D*18
$GNGGA,220335.40,3438.38254,S,05834.95808,W,2,12,0.64,32.7,M,13.9,M,,0000*71
$GNVTG,41.00,T,,M,3.284,N,6.083,K,D*13
$GNGGA,220335.60,3438.38240,S,05834.95793,W,2,12,0.64,32.7,M,13.9,M,,0000*7B
$GNRMC,220335.80,A,3438.38227,S,05834.95779,W,3.239,41.18,031023,,,D*4C
$GNVTG,41.18,T,,M,3.239,N,5.999,K,D*1D
$GNGGA,220335.80,3438.38227,S,05834.95779,W,2,12,0.64,32.7,M,13.9,M,,0000*70
$GNVTG,41.02,T,,M,3.323,N,6.154,K,D*16
$GNGGA,220336.00,3438.38213,S,05834.95764,W,2,12,0.64,32.7,M,13.9,M,,0000*70
$GNVTG,41.51,T,,M,3.321,N,6.151,K,D*17
$GNGGA,220336.20,3438.38199,S,05834.95749,W,2,12,0.64,32.7,M,13.9,M,,0000*7C
$GNVTG,41.34,T,,M,3.299,N,6.110,K,D*13
$GNGGA,220336.40,3438.38185,S,05834.95735,W,2,12,0.64,32.7,M,13.9,M,,0000*7C
$GNVTG,40.80,T,,M,3.299,N,6.110,K,D*1D
$GNGGA,220336.60,3438.38171,S,05834.95721,W,2,12,0.64,32.6,M,13.9,M,,0000*71
$GNRMC,220336.80,A,3438.38157,S,05834.95706,W,3.352,40.54,031023,,,D*46
$GNVTG,40.54,T,,M,3.352,N,6.208,K,D*18
$GNGGA,220336.80,3438.38157,S,05834.95706,W,2,12,0.64,32.6,M,13.9,M,,0000*7E
$GNVTG,41.01,T,,M,3.359,N,6.220,K,D*18
$GNGGA,220337.00,3438.38143,S,05834.95691,W,2,12,0.64,32.6,M,13.9,M,,0000*7D
$GNVTG,41.37,T,,M,3.426,N,6.344,K,D*11
$GNGGA,220337.20,3438.38129,S,05834.95676,W,2,12,0.64,32.6,M,13.9,M,,0000*7A
$GNVTG,41.20,T,,M,3.428,N,6.348,K,D*15
$GNGGA,220337.40,3438.38115,S,05834.95661,W,2,12,0.64,32.6,M,13.9,M,,0000*75
$GNVTG,40.74,T,,M,3.465,N,6.418,K,D*1E
$GNGGA,220337.60,3438.38100,S,05834.95646,W,2,12,0.64,32.6,M,13.9,M,,0000*76
$GNRMC,220337.80,A,3438.38086,S,05834.95630,W,3.414,40.97,031023,,,D*44
$GNVTG,40.97,T,,M,3.414,N,6.322,K,D*1B
$GNGGA,220337.80,3438.38086,S,05834.95630,W,2,12,0.64,32.6,M,13.9,M,,0000*76
$GNVTG,41.64,T,,M,3.449,N,6.387,K,D*11
$GNGGA,220338.00,3438.38072,S,05834.95615,W,2,12,0.64,32.6,M,13.9,M,,0000*7D
$GNVTG,41.33,T,,M,3.407,N,6.309,K,D*1F
$GNGGA,220338.20,3438.38058,S,05834.95600,W,2,12,0.64,32.6,M,13.9,M,,0000*73
$GNVTG,41.36,T,,M,3.436,N,6.364,K,D*13
$GNGGA,220338.40,3438.38043,S,05834.95584,W,2,12,0.64,32.6,M,13.9,M,,0000*70
$GNVTG,41.58,T,,M,3.394,N,6.286,K,D*19
$GNGGA,220338.60,3438.38029,S,05834.95569,W,2,12,0.64,32.6,M,13.9,M,,0000*7D
$GNRMC,220338.80,A,3438.38015,S,05834.95554,W,3.489,41.13,031023,,,D*49
$GNVTG,41.13,T,,M,3.489,N,6.462,K,D*11
$GNGGA,220338.80,3438.38015,S,05834.95554,W,2,12,0.64,32.6,M,13.9,M,,0000*72
$GNVTG,40.83,T,,M,3.491,N,6.466,K,D*14
$GNGGA,220339.00,3438.38000,S,05834.95538,W,2,12,0.64,32.6,M,13.9,M,,0000*75
$GNVTG,41.39,T,,M,3.495,N,6.473,K,D*14
$GNGGA,220339.20,3438.37986,S,05834.95523,W,2,12,0.64,32.6,M,13.9,M,,0000*75
$GNVTG,41.27,T,,M,3.569,N,6.610,K,D*1E
$GNGGA,220339.40,3438.37971,S,05834.95507,W,2,12,0.65,32.6,M,13.9,M,,0000*7C
$GNVTG,41.15,T,,M,3.522,N,6.523,K,D*13
$GNGGA,220339.60,3438.37956,S,05834.95492,W,2,12,0.64,32.6,M,13.9,M,,0000*77
